[
  {
    "province": "山东省",
    "city": "济宁市",
    "county": "曲阜市",
    "longitude": 116.994268,
    "latitude": 35.612553,
    "name": "山东省曲阜县孔林",
    "classification_number": 163,
    "address": "山东省曲阜县",
    "cultural_relic_type": "古墓葬",
    "announcement_type": "文物保护单位",
    "era": "东周",
    "batch": "第一批"
  },
  {
    "province": "陕西省",
    "city": "西安市",
    "county": "临潼区",
    "longitude": 109.268679,
    "latitude": 34.386828,
    "name": "陕西省临潼县秦始皇陵",
    "classification_number": 164,
    "address": "陕西省临潼县",
    "cultural_relic_type": "古墓葬",
    "announcement_type": "文物保护单位",
    "era": "秦",
    "batch": "第一批"
  },
  {
    "province": "陕西省",
    "city": "咸阳市",
    "county": "秦都区",
    "longitude": 108.615043,
    "latitude": 34.321477,
    "name": "陕西省兴平县茂陵",
    "classification_number": 165,
    "address": "陕西省兴平县",
    "cultural_relic_type": "古墓葬",
    "announcement_type": "文物保护单位",
    "era": "西汉",
    "batch": "第一批",
    "remarks": "汉武帝刘彻墓"
  },
  {
    "province": "陕西省",
    "city": "咸阳市",
    "county": "兴平市",
    "longitude": 108.585795,
    "latitude": 34.339502,
    "name": "陕西省兴平县霍去病墓",
    "classification_number": 166,
    "address": "陕西省兴平县",
    "cultural_relic_type": "古墓葬",
    "announcement_type": "文物保护单位",
    "era": "西汉",
    "batch": "第一批"
  },
  {
    "province": "陕西省",
    "city": "咸阳市",
    "county": "礼泉县",
    "longitude": 108.426374,
    "latitude": 34.55942,
    "name": "陕西省礼泉县昭陵",
    "classification_number": 170,
    "address": "陕西省礼泉县",
    "cultural_relic_type": "古墓葬",
    "announcement_type": "文物保护单位",
    "era": "唐",
    "batch": "第一批",
    "remarks": "唐太宗李世民墓"
  },
  {
    "province": "陕西省",
    "city": "咸阳市",
    "county": "乾县",
    "longitude": 108.241534,
    "latitude": 34.556964,
    "name": "陕西省乾县乾陵",
    "classification_number": 171,
    "address": "陕西省乾县",
    "cultural_relic_type": "古墓葬",
    "announcement_type": "文物保护单位",
    "era": "唐",
    "batch": "第一批",
    "remarks": "唐高宗李治与武则天合葬墓"
  },
  {
    "province": "陕西省",
    "city": "咸阳市",
    "county": "渭城区",
    "longitude": 108.804113,
    "latitude": 34.459864,
    "name": "陕西省咸阳市顺陵",
    "classification_number": 172,
    "address": "陕西省咸阳市",
    "cultural_relic_type": "古墓葬",
    "announcement_type": "文物保护单位",
    "era": "唐",
    "batch": "第一批",
    "remarks": "武则天之母杨氏墓"
  },
  {
    "province": "浙江省",
    "city": "杭州市",
    "longitude": 120.210792,
    "latitude": 30.246026,
    "name": "浙江省杭州市岳飞墓",
    "classification_number": 176,
    "address": "浙江省杭州市",
    "cultural_relic_type": "古墓葬",
    "announcement_type": "文物保护单位",
    "era": "南宋",
    "batch": "第一批"
  },
  {
    "province": "江苏省",
    "city": "南京市",
    "county": "玄武区",
    "longitude": 118.835108,
    "latitude": 32.048329,
    "name": "江苏省南京市明孝陵",
    "classification_number": 177,
    "address": "江苏省南京市",
    "cultural_relic_type": "古墓葬",
    "announcement_type": "文物保护单位",
    "era": "明",
    "batch": "第一批",
    "remarks": "明太祖朱元璋墓"
  },
  {
    "province": "北京市",
    "city": "北京市",
    "county": "昌平区",
    "longitude": 116.188921,
    "latitude": 40.248757,
    "name": "北京市昌平县十三陵",
    "classification_number": 178,
    "address": "北京市昌平县",
    "cultural_relic_type": "古墓葬",
    "announcement_type": "文物保护单位",
    "era": "明",
    "batch": "第一批"
  },
  {
    "province": "河北省",
    "city": "唐山市",
    "county": "遵化市",
    "longitude": 117.6827,
    "latitude": 40.173542,
    "name": "河北省遵化县清东陵",
    "classification_number": 179,
    "address": "河北省遵化县",
    "cultural_relic_type": "古墓葬",
    "announcement_type": "文物保护单位",
    "era": "清",
    "batch": "第一批"
  },
  {
    "province": "河北省",
    "city": "保定市",
    "county": "易县",
    "longitude": 115.362235,
    "latitude": 39.371801,
    "name": "河北省易县清西陵",
    "classification_number": 180,
    "address": "河北省易县",
    "cultural_relic_type": "古墓葬",
    "announcement_type": "文物保护单位",
    "era": "清",
    "batch": "第一批"
  },
  {
    "province": "贵州省",
    "city": "遵义市",
    "longitude": 107.031922,
    "latitude": 27.721931,
    "name": "贵州省遵义市杨粲墓",
    "classification_number": 57,
    "address": "贵州省遵义市",
    "cultural_relic_type": "古墓葬",
    "announcement_type": "文物保护单位",
    "era": "宋",
    "batch": "第二批"
  },
  {
    "province": "河南省",
    "city": "郑州市",
    "county": "巩义市",
    "longitude": 112.922768,
    "latitude": 34.649,
    "name": "河南省巩县宋陵",
    "classification_number": 58,
    "address": "河南省巩县",
    "cultural_relic_type": "古墓葬",
    "announcement_type": "文物保护单位",
    "era": "北宋",
    "batch": "第二批"
  },
  {
    "province": "湖北省",
    "city": "黄冈市",
    "county": "蕲春县",
    "longitude": 115.356121,
    "latitude": 30.045485,
    "name": "湖北省蕲春县李时珍墓",
    "classification_number": 59,
    "address": "湖北省蕲春县",
    "cultural_relic_type": "古墓葬",
    "announcement_type": "文物保护单位",
    "era": "明",
    "batch": "第二批"
  },
  {
    "province": "福建省",
    "city": "泉州市",
    "county": "南安市",
    "longitude": 118.397869,
    "latitude": 24.71825,
    "name": "福建省南安县郑成功墓",
    "classification_number": 60,
    "address": "福建省南安县",
    "cultural_relic_type": "古墓葬",
    "announcement_type": "文物保护单位",
    "era": "清",
    "batch": "第二批"
  },
  {
    "province": "辽宁省",
    "city": "沈阳市",
    "county": "皇姑区",
    "longitude": 123.42758,
    "latitude": 41.851292,
    "name": "辽宁省沈阳市清昭陵",
    "classification_number": 61,
    "address": "辽宁省沈阳市",
    "cultural_relic_type": "古墓葬",
    "announcement_type": "文物保护单位",
    "era": "清",
    "batch": "第二批"
  },
  {
    "province": "湖北省",
    "city": "随州市",
    "county": "曾都区",
    "longitude": 113.346613,
    "latitude": 31.729269,
    "name": "湖北省随州市擂鼓墩古墓群",
    "classification_number": 231,
    "address": "湖北省随州市",
    "cultural_relic_type": "古墓葬",
    "announcement_type": "文物保护单位",
    "era": "战国",
    "batch": "第三批"
  },
  {
    "province": "山东省",
    "city": "淄博市",
    "county": "临淄区",
    "longitude": 118.342167,
    "latitude": 36.86931,
    "name": "山东省淄博市田齐王陵",
    "classification_number": 232,
    "address": "山东省淄博市",
    "cultural_relic_type": "古墓葬",
    "announcement_type": "文物保护单位",
    "era": "战国",
    "batch": "第三批"
  },
  {
    "province": "陕西省",
    "city": "咸阳市",
    "county": "渭城区",
    "longitude": 108.829218,
    "latitude": 34.38992,
    "name": "陕西省咸阳市长陵",
    "classification_number": 233,
    "address": "陕西省咸阳市",
    "cultural_relic_type": "古墓葬",
    "announcement_type": "文物保护单位",
    "era": "西汉",
    "batch": "第三批"
  },
  {
    "province": "陕西省",
    "city": "西安市",
    "county": "长安区",
    "longitude": 109.011519,
    "latitude": 34.161824,
    "name": "陕西省长安县杜陵",
    "classification_number": 234,
    "address": "陕西省长安县",
    "cultural_relic_type": "古墓葬",
    "announcement_type": "文物保护单位",
    "era": "西汉",
    "batch": "第三批"
  },
  {
    "province": "河北省",
    "city": "保定市",
    "county": "满城区",
    "longitude": 115.294775,
    "latitude": 38.947966,
    "name": "河北省满城县中山靖王墓",
    "classification_number": 235,
    "address": "河北省满城县",
    "cultural_relic_type": "古墓葬",
    "announcement_type": "文物保护单位",
    "era": "西汉",
    "batch": "第三批"
  },
  {
    "province": "山西省",
    "city": "朔州市",
    "county": "山阴县",
    "longitude": 112.777245,
    "latitude": 39.22767,
    "name": "山西省山阴县广武汉墓群",
    "classification_number": 236,
    "address": "山西省山阴县",
    "cultural_relic_type": "古墓葬",
    "announcement_type": "文物保护单位",
    "era": "汉",
    "batch": "第三批"
  },
  {
    "province": "河南省",
    "city": "南阳市",
    "county": "卧龙区",
    "longitude": 112.614491,
    "latitude": 33.169243,
    "name": "河南省南阳县张衡墓",
    "classification_number": 237,
    "address": "河南省南阳县",
    "cultural_relic_type": "古墓葬",
    "announcement_type": "文物保护单位",
    "era": "东汉",
    "batch": "第三批"
  },
  {
    "province": "内蒙古自治区",
    "city": "包头市",
    "county": "达尔罕茂明安联合旗",
    "longitude": 110.432626,
    "latitude": 41.698992,
    "name": "内蒙古自治区达尔罕茂明安联合旗敖伦苏木城遗址",
    "classification_number": 56,
    "address": "内蒙古自治区达尔罕茂明安联合旗",
    "cultural_relic_type": "古墓葬",
    "announcement_type": "文物保护单位",
    "era": "元",
    "batch": "第四批"
  },
  {
    "province": "江苏省",
    "city": "连云港市",
    "county": "灌云县",
    "longitude": 119.24174,
    "latitude": 34.305042,
    "name": "江苏省灌云县大伊山石棺墓",
    "classification_number": 57,
    "address": "江苏省灌云县",
    "cultural_relic_type": "古墓葬",
    "announcement_type": "文物保护单位",
    "era": "新石器时代",
    "batch": "第四批"
  },
  {
    "province": "辽宁省",
    "city": "营口市",
    "county": "盖州市",
    "longitude": 122.071213,
    "latitude": 40.080702,
    "name": "辽宁省盖州市石棚山石棚",
    "classification_number": 58,
    "address": "辽宁省盖州市",
    "cultural_relic_type": "古墓葬",
    "announcement_type": "文物保护单位",
    "era": "青铜时代",
    "batch": "第四批"
  },
  {
    "province": "河南省",
    "city": "三门峡市",
    "county": "湖滨区",
    "longitude": 111.210774,
    "latitude": 34.786365,
    "name": "河南省三门峡市虢国墓地",
    "classification_number": 59,
    "address": "河南省三门峡市",
    "cultural_relic_type": "古墓葬",
    "announcement_type": "文物保护单位",
    "era": "周",
    "batch": "第四批"
  },
  {
    "province": "湖北省",
    "city": "荆门市",
    "county": "沙洋县",
    "longitude": 112.176233,
    "latitude": 30.534894,
    "name": "湖北省荆门市纪山楚墓群",
    "classification_number": 60,
    "address": "湖北省荆门市",
    "cultural_relic_type": "古墓葬",
    "announcement_type": "文物保护单位",
    "era": "东周",
    "batch": "第四批"
  },
  {
    "province": "河北省",
    "city": "沧州市",
    "county": "献县",
    "longitude": 116.122767,
    "latitude": 38.189924,
    "name": "河北省献县献县汉墓群",
    "classification_number": 61,
    "address": "河北省献县",
    "cultural_relic_type": "古墓葬",
    "announcement_type": "文物保护单位",
    "era": "汉",
    "batch": "第四批"
  },
  {
    "province": "吉林省",
    "city": "吉林市",
    "county": "[]",
    "longitude": 126.549719,
    "latitude": 43.838132,
    "name": "吉林省吉林市帽儿山墓地",
    "classification_number": 62,
    "address": "吉林省吉林市",
    "cultural_relic_type": "古墓葬",
    "announcement_type": "文物保护单位",
    "era": "汉",
    "batch": "第四批"
  },
  {
    "province": "江苏省",
    "city": "徐州市",
    "county": "云龙区",
    "longitude": 117.184726,
    "latitude": 34.250743,
    "name": "江苏省徐州市、铜山县汉楚王墓群",
    "classification_number": 63,
    "address": "江苏省徐州市、铜山县",
    "cultural_relic_type": "古墓葬",
    "announcement_type": "文物保护单位",
    "era": "汉",
    "batch": "第四批"
  },
  {
    "province": "河南省",
    "city": "商丘市",
    "county": "永城市",
    "longitude": 116.449864,
    "latitude": 33.929927,
    "name": "河南省永城市汉梁王墓群",
    "classification_number": 64,
    "address": "河南省永城市",
    "cultural_relic_type": "古墓葬",
    "announcement_type": "文物保护单位",
    "era": "西汉",
    "batch": "第四批"
  },
  {
    "province": "广西壮族自治区",
    "city": "北海市",
    "county": "合浦县",
    "longitude": 109.189867,
    "latitude": 21.64314,
    "name": "广西壮族自治区合浦县合浦汉墓群",
    "classification_number": 65,
    "address": "广西壮族自治区合浦县",
    "cultural_relic_type": "古墓葬",
    "announcement_type": "文物保护单位",
    "era": "汉",
    "batch": "第四批"
  },
  {
    "province": "四川省",
    "city": "绵阳市",
    "county": "三台县",
    "longitude": 105.09311,
    "latitude": 30.809722,
    "name": "四川省三台县郪江崖墓群",
    "classification_number": 66,
    "address": "四川省三台县",
    "cultural_relic_type": "古墓葬",
    "announcement_type": "文物保护单位",
    "era": "汉",
    "batch": "第四批"
  },
  {
    "province": "山东省",
    "city": "聊城市",
    "county": "东阿县",
    "longitude": 116.21876,
    "latitude": 36.176469,
    "name": "山东省东阿县曹植墓",
    "classification_number": 67,
    "address": "山东省东阿县",
    "cultural_relic_type": "古墓葬",
    "announcement_type": "文物保护单位",
    "era": "三国",
    "batch": "第四批"
  },
  {
    "province": "陕西省",
    "city": "汉中市",
    "county": "勉县",
    "longitude": 106.656593,
    "latitude": 33.124327,
    "name": "陕西省勉县武侯墓",
    "classification_number": 68,
    "address": "陕西省勉县",
    "cultural_relic_type": "古墓葬",
    "announcement_type": "文物保护单位",
    "era": "三国",
    "batch": "第四批"
  },
  {
    "province": "青海省",
    "city": "海西蒙古族藏族自治州",
    "county": "都兰县",
    "longitude": 98.298123,
    "latitude": 36.177046,
    "name": "青海省都兰县热水墓群",
    "classification_number": 71,
    "address": "青海省都兰县",
    "cultural_relic_type": "古墓葬",
    "announcement_type": "文物保护单位",
    "era": "唐",
    "batch": "第四批"
  },
  {
    "province": "河北省",
    "city": "张家口市",
    "county": "宣化区",
    "longitude": 115.025955,
    "latitude": 40.637447,
    "name": "河北省张家口市下八里墓群",
    "classification_number": 72,
    "address": "河北省张家口市",
    "cultural_relic_type": "古墓葬",
    "announcement_type": "文物保护单位",
    "era": "辽",
    "batch": "第四批"
  },
  {
    "province": "江苏省",
    "city": "淮安市",
    "county": "盱眙县",
    "longitude": 118.475722,
    "latitude": 33.081398,
    "name": "江苏省盱眙县明祖陵",
    "classification_number": 73,
    "address": "江苏省盱眙县",
    "cultural_relic_type": "古墓葬",
    "announcement_type": "文物保护单位",
    "era": "明",
    "batch": "第四批"
  },
  {
    "province": "河南省",
    "city": "新乡市",
    "county": "[]",
    "longitude": 113.92679,
    "latitude": 35.303589,
    "name": "河南省新乡市潞简王墓",
    "classification_number": 74,
    "address": "河南省新乡市",
    "cultural_relic_type": "古墓葬",
    "announcement_type": "文物保护单位",
    "era": "明",
    "batch": "第四批"
  },
  {
    "province": "海南省",
    "city": "海口市",
    "county": "龙华区",
    "longitude": 110.295683,
    "latitude": 20.006033,
    "name": "海南省海口市海瑞墓",
    "classification_number": 75,
    "address": "海南省海口市",
    "cultural_relic_type": "古墓葬",
    "announcement_type": "文物保护单位",
    "era": "明",
    "batch": "第四批"
  },
  {
    "province": "四川省",
    "city": "成都市",
    "county": "龙泉驿区",
    "longitude": 104.191595,
    "latitude": 30.646962,
    "name": "四川省成都市明蜀王陵",
    "classification_number": 76,
    "address": "四川省成都市",
    "cultural_relic_type": "古墓葬",
    "announcement_type": "文物保护单位",
    "era": "明",
    "batch": "第四批"
  },
  {
    "province": "河南省",
    "city": "郑州市",
    "county": "新密市",
    "longitude": 113.29274,
    "latitude": 34.512064,
    "name": "河南省密县打虎亭汉墓",
    "classification_number": 239,
    "address": "河南省密县",
    "cultural_relic_type": "古墓葬",
    "announcement_type": "文物保护单位",
    "era": "东汉",
    "batch": "第三批"
  },
  {
    "province": "河南省",
    "city": "南阳市",
    "county": "[]",
    "longitude": 112.528549,
    "latitude": 32.990218,
    "name": "河南省南阳市张仲景墓及祠",
    "classification_number": 240,
    "address": "河南省南阳市",
    "cultural_relic_type": "古墓葬",
    "announcement_type": "文物保护单位",
    "era": "东汉",
    "batch": "第三批"
  },
  {
    "province": "陕西省",
    "city": "渭南市",
    "county": "蒲城县",
    "longitude": 109.46573,
    "latitude": 34.972355,
    "name": "陕西省蒲城县桥陵",
    "classification_number": 243,
    "address": "陕西省蒲城县",
    "cultural_relic_type": "古墓葬",
    "announcement_type": "文物保护单位",
    "era": "唐",
    "batch": "第三批"
  },
  {
    "province": "江苏省",
    "city": "南京市",
    "county": "江宁区",
    "longitude": 118.738614,
    "latitude": 31.887197,
    "name": "江苏省江宁县南唐二陵",
    "classification_number": 245,
    "address": "江苏省江宁县",
    "cultural_relic_type": "古墓葬",
    "announcement_type": "文物保护单位",
    "era": "五代",
    "batch": "第三批"
  },
  {
    "province": "山西省",
    "city": "运城市",
    "county": "夏县",
    "longitude": 111.12287,
    "latitude": 35.198931,
    "name": "山西省夏县司马光墓",
    "classification_number": 246,
    "address": "山西省夏县",
    "cultural_relic_type": "古墓葬",
    "announcement_type": "文物保护单位",
    "era": "北宋",
    "batch": "第三批"
  },
  {
    "province": "内蒙古自治区",
    "city": "赤峰市",
    "county": "巴林左旗",
    "longitude": 119.134281,
    "latitude": 43.876203,
    "name": "内蒙古自治区巴林左旗、巴林右旗辽陵及奉陵邑（包括祖陵及祖州城、庆陵及庆州城）",
    "classification_number": 247,
    "address": "内蒙古自治区巴林左旗、巴林右旗",
    "cultural_relic_type": "古墓葬",
    "announcement_type": "文物保护单位",
    "era": "辽",
    "batch": "第三批"
  },
  {
    "province": "四川省",
    "city": "宜宾市",
    "county": "珙县",
    "longitude": 104.822615,
    "latitude": 28.029962,
    "name": "四川省珙县僰人悬棺葬（墓）",
    "classification_number": 249,
    "address": "四川省珙县",
    "cultural_relic_type": "古墓葬",
    "announcement_type": "文物保护单位",
    "era": "宋",
    "batch": "第三批"
  },
  {
    "province": "福建省",
    "city": "泉州市",
    "county": "丰泽区",
    "longitude": 118.618219,
    "latitude": 24.908823,
    "name": "福建省泉州市伊斯兰教圣墓",
    "classification_number": 250,
    "address": "福建省泉州市",
    "cultural_relic_type": "古墓葬",
    "announcement_type": "文物保护单位",
    "era": "元",
    "batch": "第三批"
  },
  {
    "province": "贵州省",
    "city": "毕节市",
    "county": "大方县",
    "longitude": 105.605977,
    "latitude": 27.156593,
    "name": "贵州省大方县奢香墓",
    "classification_number": 251,
    "address": "贵州省大方县",
    "cultural_relic_type": "古墓葬",
    "announcement_type": "文物保护单位",
    "era": "明",
    "batch": "第三批"
  },
  {
    "province": "山东省",
    "city": "德州市",
    "county": "德城区",
    "longitude": 116.295767,
    "latitude": 37.471241,
    "name": "山东省德州市苏禄王墓",
    "classification_number": 252,
    "address": "山东省德州市",
    "cultural_relic_type": "古墓葬",
    "announcement_type": "文物保护单位",
    "era": "明",
    "batch": "第三批"
  },
  {
    "province": "湖北省",
    "city": "[]",
    "county": "[]",
    "longitude": 114.341552,
    "latitude": 30.546222,
    "name": "湖北省钟祥县显陵",
    "classification_number": 253,
    "address": "湖北省钟祥县",
    "cultural_relic_type": "古墓葬",
    "announcement_type": "文物保护单位",
    "era": "明",
    "batch": "第三批"
  },
  {
    "province": "上海市",
    "city": "上海市",
    "county": "徐汇区",
    "longitude": 121.436307,
    "latitude": 31.188334,
    "name": "上海市徐汇区徐光启墓",
    "classification_number": 254,
    "address": "上海市徐汇区",
    "cultural_relic_type": "古墓葬",
    "announcement_type": "文物保护单位",
    "era": "明",
    "batch": "第三批"
  },
  {
    "province": "湖北省",
    "city": "咸宁市",
    "county": "通山县",
    "longitude": 114.482832,
    "latitude": 29.606468,
    "name": "湖北省通山县李自成墓",
    "classification_number": 255,
    "address": "湖北省通山县",
    "cultural_relic_type": "古墓葬",
    "announcement_type": "文物保护单位",
    "era": "清",
    "batch": "第三批"
  },
  {
    "province": "辽宁省",
    "city": "抚顺市",
    "county": "新宾满族自治县",
    "longitude": 124.832479,
    "latitude": 41.7115,
    "name": "辽宁省新宾满族自治县永陵",
    "classification_number": 256,
    "address": "辽宁省新宾满族自治县",
    "cultural_relic_type": "古墓葬",
    "announcement_type": "文物保护单位",
    "era": "清",
    "batch": "第三批"
  },
  {
    "province": "辽宁省",
    "city": "沈阳市",
    "county": "[]",
    "longitude": 123.464675,
    "latitude": 41.677576,
    "name": "辽宁省沈阳市福陵",
    "classification_number": 257,
    "address": "辽宁省沈阳市",
    "cultural_relic_type": "古墓葬",
    "announcement_type": "文物保护单位",
    "era": "清",
    "batch": "第三批"
  },
  {
    "province": "新疆维吾尔自治区",
    "city": "喀什地区",
    "county": "喀什市",
    "longitude": 75.993936,
    "latitude": 39.46823,
    "name": "新疆维吾尔自治区喀什市阿巴和加麻扎（墓）",
    "classification_number": 258,
    "address": "新疆维吾尔自治区喀什市",
    "cultural_relic_type": "古墓葬",
    "announcement_type": "文物保护单位",
    "era": "清",
    "batch": "第三批"
  },
  {
    "province": "四川省",
    "city": "成都市",
    "longitude": 104.066301,
    "latitude": 30.572961,
    "name": "四川省成都市成都古蜀船棺合葬墓",
    "classification_number": 176,
    "address": "四川省成都市",
    "cultural_relic_type": "古墓葬",
    "announcement_type": "文物保护单位",
    "era": "东周",
    "batch": "第五批"
  },
  {
    "province": "四川省",
    "city": "眉山市",
    "county": "彭山区",
    "longitude": 103.906051,
    "latitude": 30.21631,
    "name": "四川省彭山县江口崖墓",
    "classification_number": 177,
    "address": "四川省彭山县",
    "cultural_relic_type": "古墓葬",
    "announcement_type": "文物保护单位",
    "era": "汉",
    "batch": "第五批"
  },
  {
    "province": "四川省",
    "city": "广安市",
    "county": "华蓥市",
    "longitude": 106.789419,
    "latitude": 30.371651,
    "name": "四川省华蓥市安丙家族墓地",
    "classification_number": 178,
    "address": "四川省华蓥市",
    "cultural_relic_type": "古墓葬",
    "announcement_type": "文物保护单位",
    "era": "南宋",
    "batch": "第五批"
  },
  {
    "province": "云南省",
    "city": "昆明市",
    "county": "晋宁区",
    "longitude": 102.595325,
    "latitude": 24.669077,
    "name": "云南省晋宁县石寨山占墓群",
    "classification_number": 179,
    "address": "云南省晋宁县",
    "cultural_relic_type": "古墓葬",
    "announcement_type": "文物保护单位",
    "era": "战国",
    "batch": "第五批"
  },
  {
    "province": "云南省",
    "city": "玉溪市",
    "county": "江川区",
    "longitude": 102.746544,
    "latitude": 24.406721,
    "name": "云南省江川县李家山古墓群",
    "classification_number": 180,
    "address": "云南省江川县",
    "cultural_relic_type": "古墓葬",
    "announcement_type": "文物保护单位",
    "era": "战国",
    "batch": "第五批"
  },
  {
    "province": "西藏自治区",
    "city": "林芝市",
    "county": "朗县",
    "longitude": 93.320237,
    "latitude": 28.998254,
    "name": "西藏自治区朗县烈山墓地",
    "classification_number": 181,
    "address": "西藏自治区朗县",
    "cultural_relic_type": "古墓葬",
    "announcement_type": "文物保护单位",
    "era": "唐",
    "batch": "第五批"
  },
  {
    "province": "西藏自治区",
    "city": "山南市",
    "county": "洛扎县",
    "longitude": 90.794877,
    "latitude": 28.385843,
    "name": "西藏自治区洛扎县吉堆吐蕃墓群",
    "classification_number": 182,
    "address": "西藏自治区洛扎县",
    "cultural_relic_type": "古墓葬",
    "announcement_type": "文物保护单位",
    "era": "唐",
    "batch": "第五批"
  },
  {
    "province": "陕西省",
    "city": "西安市",
    "longitude": 108.939645,
    "latitude": 34.343207,
    "name": "陕西省咸阳市、西安市西汉帝陵",
    "classification_number": 183,
    "address": "陕西省咸阳市、西安市",
    "cultural_relic_type": "古墓葬",
    "announcement_type": "文物保护单位",
    "era": "西汉",
    "batch": "第五批"
  },
  {
    "province": "陕西省",
    "name": "陕西省富平县、蒲城县、三原县、泾阳县、礼泉县、乾县唐代帝陵",
    "classification_number": 184,
    "address": "陕西省富平县、蒲城县、三原县、泾阳县、礼泉县、乾县",
    "cultural_relic_type": "古墓葬",
    "announcement_type": "文物保护单位",
    "era": "唐",
    "batch": "第五批"
  },
  {
    "province": "甘肃省",
    "city": "定西市",
    "county": "漳县",
    "longitude": 104.480757,
    "latitude": 34.835266,
    "name": "甘肃省漳县汪氏家族墓地",
    "classification_number": 186,
    "address": "甘肃省漳县",
    "cultural_relic_type": "古墓葬",
    "announcement_type": "文物保护单位",
    "era": "元",
    "batch": "第五批"
  },
  {
    "province": "甘肃省",
    "city": "武威市",
    "county": "[]",
    "longitude": 102.637821,
    "latitude": 37.92898,
    "name": "甘肃省武威市雷台汉墓",
    "classification_number": 187,
    "address": "甘肃省武威市",
    "cultural_relic_type": "古墓葬",
    "announcement_type": "文物保护单位",
    "era": "东汉",
    "batch": "第五批"
  },
  {
    "province": "新疆维吾尔自治区",
    "city": "阿勒泰地区",
    "county": "青河县",
    "longitude": 90.375159,
    "latitude": 46.678532,
    "name": "新疆维吾尔自治区青河县三海子墓葬及鹿石",
    "classification_number": 188,
    "address": "新疆维吾尔自治区青河县",
    "cultural_relic_type": "古墓葬",
    "announcement_type": "文物保护单位",
    "era": "青铜时代",
    "batch": "第五批"
  },
  {
    "province": "新疆维吾尔自治区",
    "city": "哈密市",
    "longitude": 93.515053,
    "latitude": 42.819346,
    "name": "新疆维吾尔自治区哈密市焉不拉克古墓群",
    "classification_number": 189,
    "address": "新疆维吾尔自治区哈密市",
    "cultural_relic_type": "古墓葬",
    "announcement_type": "文物保护单位",
    "era": "青铜时代",
    "batch": "第五批"
  },
  {
    "province": "新疆维吾尔自治区",
    "city": "伊犁哈萨克自治州",
    "county": "霍城县",
    "longitude": 80.878845,
    "latitude": 44.056329,
    "name": "新疆维吾尔自治区霍城县吐虎鲁克·铁木尔汗麻扎",
    "classification_number": 194,
    "address": "新疆维吾尔自治区霍城县",
    "cultural_relic_type": "古墓葬",
    "announcement_type": "文物保护单位",
    "era": "元",
    "batch": "第五批"
  },
  {
    "province": "北京市",
    "city": "北京市",
    "county": "海淀区",
    "longitude": 116.242294,
    "latitude": 40.003534,
    "name": "北京市海淀区景泰陵",
    "classification_number": 145,
    "address": "北京市海淀区",
    "cultural_relic_type": "古墓葬",
    "announcement_type": "文物保护单位",
    "era": "明",
    "batch": "第五批"
  },
  {
    "province": "河北省",
    "city": "邯郸市",
    "county": "永年区",
    "longitude": 114.536626,
    "latitude": 36.74188,
    "name": "河北省邯郸县、永年县赵王陵",
    "classification_number": 146,
    "address": "河北省邯郸县、永年县",
    "cultural_relic_type": "古墓葬",
    "announcement_type": "文物保护单位",
    "era": "战国",
    "batch": "第五批"
  },
  {
    "province": "河北省",
    "city": "保定市",
    "county": "定州市",
    "longitude": 114.990321,
    "latitude": 38.516746,
    "name": "河北省定州市汉中山王墓",
    "classification_number": 147,
    "address": "河北省定州市",
    "cultural_relic_type": "古墓葬",
    "announcement_type": "文物保护单位",
    "era": "汉",
    "batch": "第五批"
  },
  {
    "province": "河北省",
    "city": "衡水市",
    "county": "安平县",
    "longitude": 115.518918,
    "latitude": 38.234769,
    "name": "河北省安平县逯家庄壁画墓",
    "classification_number": 148,
    "address": "河北省安平县",
    "cultural_relic_type": "古墓葬",
    "announcement_type": "文物保护单位",
    "era": "东汉",
    "batch": "第五批"
  },
  {
    "province": "河北省",
    "city": "张家口市",
    "county": "沽源县",
    "longitude": 115.787895,
    "latitude": 41.660213,
    "name": "河北省沽源县梳妆楼元墓",
    "classification_number": 150,
    "address": "河北省沽源县",
    "cultural_relic_type": "古墓葬",
    "announcement_type": "文物保护单位",
    "era": "元",
    "batch": "第五批"
  },
  {
    "province": "山西省",
    "city": "吕梁市",
    "county": "离石区",
    "longitude": 111.1305,
    "latitude": 37.505058,
    "name": "山西省离石市马茂庄墓群",
    "classification_number": 151,
    "address": "山西省离石市",
    "cultural_relic_type": "古墓葬",
    "announcement_type": "文物保护单位",
    "era": "东汉",
    "batch": "第五批"
  },
  {
    "province": "山西省",
    "city": "大同市",
    "county": "新荣区",
    "longitude": 113.353033,
    "latitude": 40.281582,
    "name": "山西省大同市方山永固陵",
    "classification_number": 152,
    "address": "山西省大同市",
    "cultural_relic_type": "古墓葬",
    "announcement_type": "文物保护单位",
    "era": "北魏",
    "batch": "第五批"
  },
  {
    "province": "内蒙古自治区",
    "city": "赤峰市",
    "county": "阿鲁科尔沁旗",
    "longitude": 119.672546,
    "latitude": 44.074374,
    "name": "内蒙古自治区阿鲁科尔沁旗宝山、罕苏木墓群",
    "classification_number": 154,
    "address": "内蒙古自治区阿鲁科尔沁旗",
    "cultural_relic_type": "古墓葬",
    "announcement_type": "文物保护单位",
    "era": "辽",
    "batch": "第五批"
  },
  {
    "province": "辽宁省",
    "city": "鞍山市",
    "county": "海城市",
    "longitude": 122.956667,
    "latitude": 40.66831,
    "name": "辽宁省海城市析木城石棚",
    "classification_number": 155,
    "address": "辽宁省海城市",
    "cultural_relic_type": "古墓葬",
    "announcement_type": "文物保护单位",
    "era": "青铜时代",
    "batch": "第五批"
  },
  {
    "province": "辽宁省",
    "city": "沈阳市",
    "county": "法库县",
    "longitude": 123.440294,
    "latitude": 42.50108,
    "name": "辽宁省法库县叶茂台辽墓",
    "classification_number": 156,
    "address": "辽宁省法库县",
    "cultural_relic_type": "古墓葬",
    "announcement_type": "文物保护单位",
    "era": "辽",
    "batch": "第五批"
  },
  {
    "province": "吉林省",
    "city": "吉林市",
    "county": "舒兰市",
    "longitude": 126.965515,
    "latitude": 44.405922,
    "name": "吉林省舒兰市完颜希尹家族墓地",
    "classification_number": 158,
    "address": "吉林省舒兰市",
    "cultural_relic_type": "古墓葬",
    "announcement_type": "文物保护单位",
    "era": "金",
    "batch": "第五批"
  },
  {
    "province": "江苏省",
    "city": "扬州市",
    "longitude": 119.412834,
    "latitude": 32.394404,
    "name": "江苏省扬州市普哈丁墓",
    "classification_number": 159,
    "address": "江苏省扬州市",
    "cultural_relic_type": "古墓葬",
    "announcement_type": "文物保护单位",
    "era": "宋",
    "batch": "第五批"
  },
  {
    "province": "江苏省",
    "city": "南京市",
    "county": "雨花台区",
    "longitude": 118.757797,
    "latitude": 31.976089,
    "name": "江苏省南京市浡泥国王墓",
    "classification_number": 160,
    "address": "江苏省南京市",
    "cultural_relic_type": "古墓葬",
    "announcement_type": "文物保护单位",
    "era": "明",
    "batch": "第五批"
  },
  {
    "province": "浙江省",
    "city": "杭州市",
    "county": "临安区",
    "longitude": 119.725328,
    "latitude": 30.236765,
    "name": "浙江省临安市临安吴越国王陵",
    "classification_number": 163,
    "address": "浙江省临安市",
    "cultural_relic_type": "古墓葬",
    "announcement_type": "文物保护单位",
    "era": "五代",
    "batch": "第五批"
  },
  {
    "province": "安徽省",
    "city": "芜湖市",
    "county": "南陵县",
    "longitude": 118.334083,
    "latitude": 30.914621,
    "name": "安徽省南陵县、繁昌县皖南土墩墓群",
    "classification_number": 164,
    "address": "安徽省南陵县、繁昌县",
    "cultural_relic_type": "古墓葬",
    "announcement_type": "文物保护单位",
    "era": "西周",
    "batch": "第五批"
  },
  {
    "province": "安徽省",
    "city": "马鞍山市",
    "county": "雨山区",
    "longitude": 118.494657,
    "latitude": 31.668645,
    "name": "安徽省马鞍山市朱然家族墓地",
    "classification_number": 166,
    "address": "安徽省马鞍山市",
    "cultural_relic_type": "古墓葬",
    "announcement_type": "文物保护单位",
    "era": "三国",
    "batch": "第五批"
  },
  {
    "province": "山东省",
    "city": "济南市",
    "county": "长清区",
    "longitude": 116.644746,
    "latitude": 36.445347,
    "name": "山东省济南市汉济北王墓",
    "classification_number": 168,
    "address": "山东省济南市",
    "cultural_relic_type": "古墓葬",
    "announcement_type": "文物保护单位",
    "era": "西汉",
    "batch": "第五批"
  },
  {
    "province": "山东省",
    "city": "临沂市",
    "county": "沂南县",
    "longitude": 118.423746,
    "latitude": 35.545121,
    "name": "山东省沂南县北寨墓群",
    "classification_number": 169,
    "address": "山东省沂南县",
    "cultural_relic_type": "古墓葬",
    "announcement_type": "文物保护单位",
    "era": "东汉",
    "batch": "第五批"
  },
  {
    "province": "山东省",
    "city": "济宁市",
    "county": "曲阜市",
    "longitude": 116.998734,
    "latitude": 35.507199,
    "name": "山东省曲阜市、邹城市汉鲁王墓",
    "classification_number": 170,
    "address": "山东省曲阜市、邹城市",
    "cultural_relic_type": "古墓葬",
    "announcement_type": "文物保护单位",
    "era": "西汉",
    "batch": "第五批"
  },
  {
    "province": "河南省",
    "city": "洛阳市",
    "county": "偃师区",
    "longitude": 112.789375,
    "latitude": 34.72715,
    "name": "河南省偃师市恭陵",
    "classification_number": 172,
    "address": "河南省偃师市",
    "cultural_relic_type": "古墓葬",
    "announcement_type": "文物保护单位",
    "era": "唐",
    "batch": "第五批"
  },
  {
    "province": "河南省",
    "city": "郑州市",
    "county": "新郑市",
    "longitude": 113.70262,
    "latitude": 34.560836,
    "name": "河南省新郑市后周皇陵",
    "classification_number": 173,
    "address": "河南省新郑市",
    "cultural_relic_type": "古墓葬",
    "announcement_type": "文物保护单位",
    "era": "五代",
    "batch": "第五批"
  },
  {
    "province": "河南省",
    "city": "焦作市",
    "county": "沁阳市",
    "longitude": 112.950873,
    "latitude": 35.087569,
    "name": "河南省沁阳市朱载育墓",
    "classification_number": 174,
    "address": "河南省沁阳市",
    "cultural_relic_type": "古墓葬",
    "announcement_type": "文物保护单位",
    "era": "明",
    "batch": "第五批"
  },
  {
    "province": "湖北省",
    "city": "武汉市",
    "county": "[]",
    "longitude": 114.304569,
    "latitude": 30.593354,
    "name": "湖北省武汉市明楚王墓",
    "classification_number": 175,
    "address": "湖北省武汉市",
    "cultural_relic_type": "古墓葬",
    "announcement_type": "文物保护单位",
    "era": "明",
    "batch": "第五批"
  },
  {
    "province": "北京市",
    "city": "北京市",
    "county": "房山区",
    "longitude": 115.918692,
    "latitude": 39.7493,
    "name": "北京市房山区金陵",
    "classification_number": 221,
    "address": "北京市房山区",
    "cultural_relic_type": "古墓葬",
    "announcement_type": "文物保护单位",
    "era": "金",
    "batch": "第六批"
  },
  {
    "province": "北京市",
    "city": "北京市",
    "county": "西城区",
    "longitude": 116.36585,
    "latitude": 39.9126,
    "name": "北京市西城区利玛窦和外国传教士墓地",
    "classification_number": 222,
    "address": "北京市西城区",
    "cultural_relic_type": "古墓葬",
    "announcement_type": "文物保护单位",
    "era": "明",
    "batch": "第六批"
  },
  {
    "province": "北京市",
    "city": "北京市",
    "county": "东城区",
    "longitude": 116.438141,
    "latitude": 39.895151,
    "name": "北京市崇文区袁崇焕墓和祠",
    "classification_number": 223,
    "address": "北京市崇文区",
    "cultural_relic_type": "古墓葬",
    "announcement_type": "文物保护单位",
    "era": "明",
    "batch": "第六批"
  },
  {
    "province": "河北省",
    "city": "邢台市",
    "county": "[]",
    "longitude": 114.49742,
    "latitude": 37.060227,
    "name": "河北省邢台市邢国墓地",
    "classification_number": 224,
    "address": "河北省邢台市",
    "cultural_relic_type": "古墓葬",
    "announcement_type": "文物保护单位",
    "era": "周",
    "batch": "第六批"
  },
  {
    "province": "河北省",
    "city": "保定市",
    "county": "望都县",
    "longitude": 115.159396,
    "latitude": 38.709419,
    "name": "河北省望都县所药村壁画墓",
    "classification_number": 225,
    "address": "河北省望都县",
    "cultural_relic_type": "古墓葬",
    "announcement_type": "文物保护单位",
    "era": "汉",
    "batch": "第六批"
  },
  {
    "province": "河北省",
    "city": "邢台市",
    "county": "隆尧县",
    "longitude": 114.771386,
    "latitude": 37.293905,
    "name": "河北省隆尧县隆尧唐祖陵",
    "classification_number": 226,
    "address": "河北省隆尧县",
    "cultural_relic_type": "古墓葬",
    "announcement_type": "文物保护单位",
    "era": "唐",
    "batch": "第六批"
  },
  {
    "province": "河北省",
    "city": "保定市",
    "county": "满城区",
    "longitude": 115.315227,
    "latitude": 39.028381,
    "name": "河北省满城县张柔墓",
    "classification_number": 227,
    "address": "河北省满城县",
    "cultural_relic_type": "古墓葬",
    "announcement_type": "文物保护单位",
    "era": "元",
    "batch": "第六批"
  },
  {
    "province": "河北省",
    "city": "保定市",
    "county": "涞水县",
    "longitude": 115.702962,
    "latitude": 39.494147,
    "name": "河北省涞水县怡贤亲王墓",
    "classification_number": 228,
    "address": "河北省涞水县",
    "cultural_relic_type": "古墓葬",
    "announcement_type": "文物保护单位",
    "era": "清",
    "batch": "第六批"
  },
  {
    "province": "河北省",
    "city": "沧州市",
    "county": "沧县",
    "longitude": 117.007478,
    "latitude": 38.219856,
    "name": "河北省沧县纪晓岚墓地",
    "classification_number": 229,
    "address": "河北省沧县",
    "cultural_relic_type": "古墓葬",
    "announcement_type": "文物保护单位",
    "era": "清",
    "batch": "第六批"
  },
  {
    "province": "山西省",
    "city": "运城市",
    "county": "夏县",
    "longitude": 111.282286,
    "latitude": 35.247143,
    "name": "山西省夏县崔家河墓群",
    "classification_number": 230,
    "address": "山西省夏县",
    "cultural_relic_type": "古墓葬",
    "announcement_type": "文物保护单位",
    "era": "周",
    "batch": "第六批"
  },
  {
    "province": "山西省",
    "city": "大同市",
    "county": "天镇县",
    "longitude": 114.090871,
    "latitude": 40.42087,
    "name": "山西省天镇县沙梁坡墓群",
    "classification_number": 231,
    "address": "山西省天镇县",
    "cultural_relic_type": "古墓葬",
    "announcement_type": "文物保护单位",
    "era": "汉",
    "batch": "第六批"
  },
  {
    "province": "山西省",
    "city": "大同市",
    "county": "阳高县",
    "longitude": 113.948337,
    "latitude": 40.118148,
    "name": "山西省阳高县古城堡墓群",
    "classification_number": 232,
    "address": "山西省阳高县",
    "cultural_relic_type": "古墓葬",
    "announcement_type": "文物保护单位",
    "era": "汉",
    "batch": "第六批"
  },
  {
    "province": "山西省",
    "city": "太原市",
    "county": "迎泽区",
    "longitude": 112.608641,
    "latitude": 37.841807,
    "name": "山西省太原市王家峰墓群",
    "classification_number": 233,
    "address": "山西省太原市",
    "cultural_relic_type": "古墓葬",
    "announcement_type": "文物保护单位",
    "era": "南北朝",
    "batch": "第六批"
  },
  {
    "province": "山西省",
    "city": "晋中市",
    "county": "榆次区",
    "longitude": 112.873847,
    "latitude": 37.815107,
    "name": "山西省晋中市什贴墓群",
    "classification_number": 234,
    "address": "山西省晋中市",
    "cultural_relic_type": "古墓葬",
    "announcement_type": "文物保护单位",
    "era": "南北朝",
    "batch": "第六批"
  },
  {
    "province": "山西省",
    "city": "大同市",
    "county": "浑源县",
    "longitude": 113.703963,
    "latitude": 39.704373,
    "name": "山西省浑源县栗毓美墓",
    "classification_number": 235,
    "address": "山西省浑源县",
    "cultural_relic_type": "古墓葬",
    "announcement_type": "文物保护单位",
    "era": "清",
    "batch": "第六批"
  },
  {
    "province": "内蒙古自治区",
    "city": "呼伦贝尔市",
    "county": "满洲里市",
    "longitude": 117.379134,
    "latitude": 49.59862,
    "name": "内蒙古自治区满洲里市扎赉诺尔墓群",
    "classification_number": 236,
    "address": "内蒙古自治区满洲里市",
    "cultural_relic_type": "古墓葬",
    "announcement_type": "文物保护单位",
    "era": "汉",
    "batch": "第六批"
  },
  {
    "province": "内蒙古自治区",
    "city": "呼和浩特市",
    "county": "玉泉区",
    "longitude": 111.683227,
    "latitude": 40.709768,
    "name": "内蒙古自治区呼和浩特市王昭君墓",
    "classification_number": 237,
    "address": "内蒙古自治区呼和浩特市",
    "cultural_relic_type": "古墓葬",
    "announcement_type": "文物保护单位",
    "era": "汉",
    "batch": "第六批"
  },
  {
    "province": "内蒙古自治区",
    "city": "赤峰市",
    "county": "巴林左旗",
    "longitude": 119.362832,
    "latitude": 43.961547,
    "name": "内蒙古自治区巴林左旗韩匡嗣家族墓地",
    "classification_number": 238,
    "address": "内蒙古自治区巴林左旗",
    "cultural_relic_type": "古墓葬",
    "announcement_type": "文物保护单位",
    "era": "辽",
    "batch": "第六批"
  },
  {
    "province": "内蒙古自治区",
    "city": "通辽市",
    "county": "科尔沁左翼后旗",
    "longitude": 122.35677,
    "latitude": 42.935105,
    "name": "内蒙古自治区科尔沁左翼后旗吐尔基山墓",
    "classification_number": 239,
    "address": "内蒙古自治区科尔沁左翼后旗",
    "cultural_relic_type": "古墓葬",
    "announcement_type": "文物保护单位",
    "era": "辽",
    "batch": "第六批"
  },
  {
    "province": "内蒙古自治区",
    "city": "通辽市",
    "county": "奈曼旗",
    "longitude": 120.657813,
    "latitude": 42.867433,
    "name": "内蒙古自治区奈曼旗萧氏家族墓",
    "classification_number": 240,
    "address": "内蒙古自治区奈曼旗",
    "cultural_relic_type": "古墓葬",
    "announcement_type": "文物保护单位",
    "era": "辽",
    "batch": "第六批"
  },
  {
    "province": "内蒙古自治区",
    "city": "赤峰市",
    "county": "翁牛特旗",
    "longitude": 119.006187,
    "latitude": 42.936529,
    "name": "内蒙古自治区翁牛特旗张应瑞家族墓地",
    "classification_number": 241,
    "address": "内蒙古自治区翁牛特旗",
    "cultural_relic_type": "古墓葬",
    "announcement_type": "文物保护单位",
    "era": "元",
    "batch": "第六批"
  },
  {
    "province": "吉林省",
    "city": "通化市",
    "county": "柳河县",
    "longitude": 125.744654,
    "latitude": 42.284594,
    "name": "吉林省梅河口市、柳河县辉发河上游石棚墓",
    "classification_number": 244,
    "address": "吉林省梅河口市、柳河县",
    "cultural_relic_type": "古墓葬",
    "announcement_type": "文物保护单位",
    "era": "周",
    "batch": "第六批"
  },
  {
    "province": "黑龙江省",
    "city": "鸡西市",
    "county": "[]",
    "longitude": 130.969385,
    "latitude": 45.295087,
    "name": "黑龙江省鸡西市刀背山墓地",
    "classification_number": 245,
    "address": "黑龙江省鸡西市",
    "cultural_relic_type": "古墓葬",
    "announcement_type": "文物保护单位",
    "era": "新石器时代",
    "batch": "第六批"
  },
  {
    "province": "江苏省",
    "city": "无锡市",
    "county": "新吴区",
    "longitude": 120.506976,
    "latitude": 31.493,
    "name": "江苏省无锡市鸿山墓群",
    "classification_number": 246,
    "address": "江苏省无锡市",
    "cultural_relic_type": "古墓葬",
    "announcement_type": "文物保护单位",
    "era": "周",
    "batch": "第六批"
  },
  {
    "province": "江苏省",
    "city": "徐州市",
    "county": "铜山区",
    "longitude": 117.169698,
    "latitude": 34.181162,
    "name": "江苏省徐州市、铜山县徐州墓群",
    "classification_number": 247,
    "address": "江苏省徐州市、铜山县",
    "cultural_relic_type": "古墓葬",
    "announcement_type": "文物保护单位",
    "era": "汉",
    "batch": "第六批"
  },
  {
    "province": "浙江省",
    "city": "金华市",
    "county": "东阳市",
    "longitude": 120.186309,
    "latitude": 29.287756,
    "name": "浙江省东阳市东阳土墩墓群",
    "classification_number": 249,
    "address": "浙江省东阳市",
    "cultural_relic_type": "古墓葬",
    "announcement_type": "文物保护单位",
    "era": "周",
    "batch": "第六批"
  },
  {
    "province": "浙江省",
    "city": "温州市",
    "county": "乐清市",
    "longitude": 120.817699,
    "latitude": 28.028974,
    "name": "浙江省乐清市高氏家族墓地",
    "classification_number": 250,
    "address": "浙江省乐清市",
    "cultural_relic_type": "古墓葬",
    "announcement_type": "文物保护单位",
    "era": "明",
    "batch": "第六批"
  },
  {
    "province": "浙江省",
    "city": "杭州市",
    "county": "西湖区",
    "longitude": 120.131202,
    "latitude": 30.229699,
    "name": "浙江省杭州市于谦墓",
    "classification_number": 251,
    "address": "浙江省杭州市",
    "cultural_relic_type": "古墓葬",
    "announcement_type": "文物保护单位",
    "era": "明",
    "batch": "第六批"
  },
  {
    "province": "安徽省",
    "city": "马鞍山市",
    "county": "当涂县",
    "longitude": 118.518987,
    "latitude": 31.491545,
    "name": "安徽省当涂县李白墓",
    "classification_number": 252,
    "address": "安徽省当涂县",
    "cultural_relic_type": "古墓葬",
    "announcement_type": "文物保护单位",
    "era": "唐",
    "batch": "第六批"
  },
  {
    "province": "福建省",
    "city": "南平市",
    "county": "武夷山市",
    "longitude": 117.893559,
    "latitude": 27.906438,
    "name": "福建省武夷山市武夷山崖墓群",
    "classification_number": 253,
    "address": "福建省武夷山市",
    "cultural_relic_type": "古墓葬",
    "announcement_type": "文物保护单位",
    "era": "青铜时代",
    "batch": "第六批"
  },
  {
    "province": "福建省",
    "city": "南平市",
    "county": "建阳区",
    "longitude": 117.643121,
    "latitude": 27.567127,
    "name": "福建省建阳市朱熹墓",
    "classification_number": 254,
    "address": "福建省建阳市",
    "cultural_relic_type": "古墓葬",
    "announcement_type": "文物保护单位",
    "era": "宋",
    "batch": "第六批"
  },
  {
    "province": "江西省",
    "city": "宜春市",
    "county": "高安市",
    "longitude": 115.120209,
    "latitude": 28.40184,
    "name": "江西省高安市朱轼墓",
    "classification_number": 255,
    "address": "江西省高安市",
    "cultural_relic_type": "古墓葬",
    "announcement_type": "文物保护单位",
    "era": "清",
    "batch": "第六批"
  },
  {
    "province": "山东省",
    "city": "烟台市",
    "county": "海阳市",
    "longitude": 121.173506,
    "latitude": 36.688316,
    "name": "山东省海阳市嘴子前墓群",
    "classification_number": 256,
    "address": "山东省海阳市",
    "cultural_relic_type": "古墓葬",
    "announcement_type": "文物保护单位",
    "era": "周",
    "batch": "第六批"
  },
  {
    "province": "山东省",
    "city": "济宁市",
    "county": "任城区",
    "longitude": 116.567405,
    "latitude": 35.445234,
    "name": "山东省济宁市萧王庄墓群",
    "classification_number": 257,
    "address": "山东省济宁市",
    "cultural_relic_type": "古墓葬",
    "announcement_type": "文物保护单位",
    "era": "汉",
    "batch": "第六批"
  },
  {
    "province": "山东省",
    "city": "潍坊市",
    "county": "临朐县",
    "longitude": 118.543274,
    "latitude": 36.51246,
    "name": "山东省临朐县崔芬墓",
    "classification_number": 259,
    "address": "山东省临朐县",
    "cultural_relic_type": "古墓葬",
    "announcement_type": "文物保护单位",
    "era": "南北朝",
    "batch": "第六批"
  },
  {
    "province": "山东省",
    "city": "聊城市",
    "county": "莘县",
    "longitude": 115.669843,
    "latitude": 36.233711,
    "name": "山东省莘县韩氏家族墓地",
    "classification_number": 260,
    "address": "山东省莘县",
    "cultural_relic_type": "古墓葬",
    "announcement_type": "文物保护单位",
    "era": "唐",
    "batch": "第六批"
  },
  {
    "province": "山东省",
    "city": "济宁市",
    "county": "邹城市",
    "longitude": 117.011574,
    "latitude": 35.471545,
    "name": "山东省邹城市明鲁王墓",
    "classification_number": 261,
    "address": "山东省邹城市",
    "cultural_relic_type": "古墓葬",
    "announcement_type": "文物保护单位",
    "era": "明",
    "batch": "第六批"
  },
  {
    "province": "河南省",
    "city": "平顶山市",
    "county": "新华区",
    "longitude": 113.131117,
    "latitude": 33.772222,
    "name": "河南省平顶山市应国墓地",
    "classification_number": 262,
    "address": "河南省平顶山市",
    "cultural_relic_type": "古墓葬",
    "announcement_type": "文物保护单位",
    "era": "周",
    "batch": "第六批"
  },
  {
    "province": "河南省",
    "city": "漯河市",
    "county": "[]",
    "longitude": 114.0166,
    "latitude": 33.58038,
    "name": "河南省漯河市许慎墓",
    "classification_number": 263,
    "address": "河南省漯河市",
    "cultural_relic_type": "古墓葬",
    "announcement_type": "文物保护单位",
    "era": "汉",
    "batch": "第六批"
  },
  {
    "province": "河南省",
    "city": "焦作市",
    "county": "孟州市",
    "longitude": 112.717355,
    "latitude": 34.903291,
    "name": "河南省孟州市韩愈墓",
    "classification_number": 264,
    "address": "河南省孟州市",
    "cultural_relic_type": "古墓葬",
    "announcement_type": "文物保护单位",
    "era": "唐",
    "batch": "第六批"
  },
  {
    "province": "河南省",
    "city": "洛阳市",
    "county": "伊川县",
    "longitude": 112.548188,
    "latitude": 34.493151,
    "name": "河南省伊川县范仲淹墓",
    "classification_number": 265,
    "address": "河南省伊川县",
    "cultural_relic_type": "古墓葬",
    "announcement_type": "文物保护单位",
    "era": "宋",
    "batch": "第六批"
  },
  {
    "province": "河南省",
    "city": "郑州市",
    "county": "新郑市",
    "longitude": 113.74024,
    "latitude": 34.396479,
    "name": "河南省新郑市欧阳修墓",
    "classification_number": 266,
    "address": "河南省新郑市",
    "cultural_relic_type": "古墓葬",
    "announcement_type": "文物保护单位",
    "era": "宋",
    "batch": "第六批"
  },
  {
    "province": "河南省",
    "city": "郑州市",
    "county": "新郑市",
    "longitude": 113.618289,
    "latitude": 34.608322,
    "name": "河南省新郑市李诫墓",
    "classification_number": 267,
    "address": "河南省新郑市",
    "cultural_relic_type": "古墓葬",
    "announcement_type": "文物保护单位",
    "era": "宋",
    "batch": "第六批"
  },
  {
    "province": "湖北省",
    "city": "宜昌市",
    "county": "枝江市",
    "longitude": 111.760616,
    "latitude": 30.425758,
    "name": "湖北省枝江市青山墓群",
    "classification_number": 268,
    "address": "湖北省枝江市",
    "cultural_relic_type": "古墓葬",
    "announcement_type": "文物保护单位",
    "era": "周",
    "batch": "第六批"
  },
  {
    "province": "湖北省",
    "city": "襄阳市",
    "county": "枣阳市",
    "longitude": 112.772723,
    "latitude": 32.128968,
    "name": "湖北省枣阳市九连墩墓群",
    "classification_number": 269,
    "address": "湖北省枣阳市",
    "cultural_relic_type": "古墓葬",
    "announcement_type": "文物保护单位",
    "era": "战国",
    "batch": "第六批"
  },
  {
    "province": "河北省",
    "city": "邯郸市",
    "county": "邯山区",
    "longitude": 114.531062,
    "latitude": 36.59457,
    "name": "河北省邯郸市邯郸县林村墓群",
    "classification_number": 517,
    "address": "河北省邯郸市邯郸县",
    "cultural_relic_type": "古墓葬",
    "announcement_type": "文物保护单位",
    "era": "战国",
    "batch": "第七批"
  },
  {
    "province": "河北省",
    "city": "保定市",
    "county": "曲阳县",
    "longitude": 114.740476,
    "latitude": 38.614409,
    "name": "河北省保定市曲阳县王处直墓",
    "classification_number": 521,
    "address": "河北省保定市曲阳县",
    "cultural_relic_type": "古墓葬",
    "announcement_type": "文物保护单位",
    "era": "五代",
    "batch": "第七批"
  },
  {
    "province": "河北省",
    "city": "张家口市",
    "county": "蔚县",
    "longitude": 114.74879,
    "latitude": 39.891596,
    "name": "河北省张家口市蔚县杨赟家族墓地",
    "classification_number": 523,
    "address": "河北省张家口市蔚县",
    "cultural_relic_type": "古墓葬",
    "announcement_type": "文物保护单位",
    "era": "元",
    "batch": "第七批"
  },
  {
    "province": "山西省",
    "city": "运城市",
    "county": "新绛县",
    "longitude": 111.173674,
    "latitude": 35.687007,
    "name": "山西省运城市新绛县冯古庄墓地",
    "classification_number": 524,
    "address": "山西省运城市新绛县",
    "cultural_relic_type": "古墓葬",
    "announcement_type": "文物保护单位",
    "era": "西周",
    "batch": "第七批"
  },
  {
    "province": "山西省",
    "city": "运城市",
    "county": "河津市",
    "longitude": 110.776517,
    "latitude": 35.530947,
    "name": "山西省运城市河津市山王墓地",
    "classification_number": 525,
    "address": "山西省运城市河津市",
    "cultural_relic_type": "古墓葬",
    "announcement_type": "文物保护单位",
    "era": "西周",
    "batch": "第七批"
  },
  {
    "province": "山西省",
    "city": "运城市",
    "county": "绛县",
    "longitude": 111.450439,
    "latitude": 35.475388,
    "name": "山西省运城市绛县横北倗国墓地",
    "classification_number": 526,
    "address": "山西省运城市绛县",
    "cultural_relic_type": "古墓葬",
    "announcement_type": "文物保护单位",
    "era": "西周",
    "batch": "第七批"
  },
  {
    "province": "山西省",
    "city": "长治市",
    "county": "黎城县",
    "longitude": 113.387155,
    "latitude": 36.502328,
    "name": "山西省长治市黎城县西周黎侯墓群",
    "classification_number": 527,
    "address": "山西省长治市黎城县",
    "cultural_relic_type": "古墓葬",
    "announcement_type": "文物保护单位",
    "era": "西周",
    "batch": "第七批"
  },
  {
    "province": "山西省",
    "city": "临汾市",
    "county": "曲沃县",
    "longitude": 111.586029,
    "latitude": 35.705243,
    "name": "山西省临汾市曲沃县羊舌墓地",
    "classification_number": 528,
    "address": "山西省临汾市曲沃县",
    "cultural_relic_type": "古墓葬",
    "announcement_type": "文物保护单位",
    "era": "西周",
    "batch": "第七批"
  },
  {
    "province": "山西省",
    "city": "运城市",
    "county": "夏县",
    "longitude": 111.082174,
    "latitude": 35.261582,
    "name": "山西省运城市夏县薛嵩墓",
    "classification_number": 529,
    "address": "山西省运城市夏县",
    "cultural_relic_type": "古墓葬",
    "announcement_type": "文物保护单位",
    "era": "唐",
    "batch": "第七批"
  },
  {
    "province": "内蒙古自治区",
    "city": "通辽市",
    "county": "扎鲁特旗",
    "longitude": 120.917953,
    "latitude": 44.567093,
    "name": "内蒙古自治区通辽市扎鲁特旗南宝力皋吐古墓地",
    "classification_number": 531,
    "address": "内蒙古自治区通辽市扎鲁特旗",
    "cultural_relic_type": "古墓葬",
    "announcement_type": "文物保护单位",
    "era": "新石器时代",
    "batch": "第七批"
  },
  {
    "province": "内蒙古自治区",
    "city": "呼伦贝尔市",
    "county": "海拉尔区",
    "longitude": 120.053399,
    "latitude": 49.244333,
    "name": "内蒙古自治区呼伦贝尔市海拉尔区团结墓地",
    "classification_number": 533,
    "address": "内蒙古自治区呼伦贝尔市海拉尔区",
    "cultural_relic_type": "古墓葬",
    "announcement_type": "文物保护单位",
    "era": "东汉",
    "batch": "第七批"
  },
  {
    "province": "内蒙古自治区",
    "city": "呼和浩特市",
    "county": "和林格尔县",
    "longitude": 112.083964,
    "latitude": 40.236781,
    "name": "内蒙古自治区呼和浩特市和林格尔县和林格尔东汉壁画墓",
    "classification_number": 534,
    "address": "内蒙古自治区呼和浩特市和林格尔县",
    "cultural_relic_type": "古墓葬",
    "announcement_type": "文物保护单位",
    "era": "东汉",
    "batch": "第七批"
  },
  {
    "province": "内蒙古自治区",
    "city": "通辽市",
    "county": "库伦旗",
    "longitude": 121.869936,
    "latitude": 42.629063,
    "name": "内蒙古自治区通辽市库伦旗奈林稿辽墓群",
    "classification_number": 536,
    "address": "内蒙古自治区通辽市库伦旗",
    "cultural_relic_type": "古墓葬",
    "announcement_type": "文物保护单位",
    "era": "辽",
    "batch": "第七批"
  },
  {
    "province": "内蒙古自治区",
    "city": "赤峰市",
    "county": "阿鲁科尔沁旗",
    "longitude": 120.065533,
    "latitude": 43.872398,
    "name": "内蒙古自治区赤峰市阿鲁科尔沁旗耶律祺家族墓",
    "classification_number": 537,
    "address": "内蒙古自治区赤峰市阿鲁科尔沁旗",
    "cultural_relic_type": "古墓葬",
    "announcement_type": "文物保护单位",
    "era": "辽",
    "batch": "第七批"
  },
  {
    "province": "内蒙古自治区",
    "city": "赤峰市",
    "county": "喀喇沁旗",
    "longitude": 118.701934,
    "latitude": 41.927103,
    "name": "内蒙古自治区赤峰市喀喇沁旗耶律琮墓",
    "classification_number": 538,
    "address": "内蒙古自治区赤峰市喀喇沁旗",
    "cultural_relic_type": "古墓葬",
    "announcement_type": "文物保护单位",
    "era": "辽",
    "batch": "第七批"
  },
  {
    "province": "内蒙古自治区",
    "city": "赤峰市",
    "county": "阿鲁科尔沁旗",
    "longitude": 120.065533,
    "latitude": 43.872398,
    "name": "内蒙古自治区赤峰市阿鲁科尔沁旗沙日宝特墓群",
    "classification_number": 539,
    "address": "内蒙古自治区赤峰市阿鲁科尔沁旗",
    "cultural_relic_type": "古墓葬",
    "announcement_type": "文物保护单位",
    "era": "辽",
    "batch": "第七批"
  },
  {
    "province": "内蒙古自治区",
    "city": "锡林郭勒盟",
    "county": "多伦县",
    "longitude": 116.279316,
    "latitude": 42.317869,
    "name": "内蒙古自治区锡林郭勒盟多伦县砧子山古墓群",
    "classification_number": 540,
    "address": "内蒙古自治区锡林郭勒盟多伦县",
    "cultural_relic_type": "古墓葬",
    "announcement_type": "文物保护单位",
    "era": "元",
    "batch": "第七批"
  },
  {
    "province": "内蒙古自治区",
    "city": "锡林郭勒盟",
    "county": "苏尼特左旗",
    "longitude": 113.640777,
    "latitude": 43.849497,
    "name": "内蒙古自治区锡林郭勒盟苏尼特左旗恩格尔河墓群",
    "classification_number": 541,
    "address": "内蒙古自治区锡林郭勒盟苏尼特左旗",
    "cultural_relic_type": "古墓葬",
    "announcement_type": "文物保护单位",
    "era": "元",
    "batch": "第七批"
  },
  {
    "province": "内蒙古自治区",
    "city": "赤峰市",
    "county": "喀喇沁旗",
    "longitude": 118.701934,
    "latitude": 41.927103,
    "name": "内蒙古自治区赤峰市喀喇沁旗和硕端静公主墓",
    "classification_number": 542,
    "address": "内蒙古自治区赤峰市喀喇沁旗",
    "cultural_relic_type": "古墓葬",
    "announcement_type": "文物保护单位",
    "era": "清",
    "batch": "第七批"
  },
  {
    "province": "辽宁省",
    "city": "大连市",
    "county": "甘井子区",
    "longitude": 121.378102,
    "latitude": 39.032837,
    "name": "辽宁省大连市甘井子区四平山积石墓地",
    "classification_number": 543,
    "address": "辽宁省大连市甘井子区",
    "cultural_relic_type": "古墓葬",
    "announcement_type": "文物保护单位",
    "era": "新石器时代",
    "batch": "第七批"
  },
  {
    "province": "辽宁省",
    "city": "大连市",
    "county": "甘井子区",
    "longitude": 121.525469,
    "latitude": 38.952998,
    "name": "辽宁省大连市甘井子区岗上楼上墓地",
    "classification_number": 547,
    "address": "辽宁省大连市甘井子区",
    "cultural_relic_type": "古墓葬",
    "announcement_type": "文物保护单位",
    "era": "西周",
    "batch": "第七批"
  },
  {
    "province": "辽宁省",
    "city": "葫芦岛市",
    "county": "建昌县",
    "longitude": 119.598025,
    "latitude": 40.634363,
    "name": "辽宁省葫芦岛市建昌县东大杖子古墓群",
    "classification_number": 548,
    "address": "辽宁省葫芦岛市建昌县",
    "cultural_relic_type": "古墓葬",
    "announcement_type": "文物保护单位",
    "era": "战国",
    "batch": "第七批"
  },
  {
    "province": "辽宁省",
    "city": "大连市",
    "county": "甘井子区",
    "longitude": 121.384227,
    "latitude": 38.986663,
    "name": "辽宁省大连市甘井子区营城子汉墓群",
    "classification_number": 550,
    "address": "辽宁省大连市甘井子区",
    "cultural_relic_type": "古墓葬",
    "announcement_type": "文物保护单位",
    "era": "汉",
    "batch": "第七批"
  },
  {
    "province": "辽宁省",
    "city": "本溪市",
    "county": "桓仁满族自治县",
    "longitude": 125.350063,
    "latitude": 41.202987,
    "name": "辽宁省本溪市桓仁满族自治县雅河流域墓群",
    "classification_number": 552,
    "address": "辽宁省本溪市桓仁满族自治县",
    "cultural_relic_type": "古墓葬",
    "announcement_type": "文物保护单位",
    "era": "汉",
    "batch": "第七批"
  },
  {
    "province": "辽宁省",
    "city": "本溪市",
    "county": "桓仁满族自治县",
    "longitude": 125.071165,
    "latitude": 41.338331,
    "name": "辽宁省本溪市桓仁满族自治县冯家堡子墓地",
    "classification_number": 553,
    "address": "辽宁省本溪市桓仁满族自治县",
    "cultural_relic_type": "古墓葬",
    "announcement_type": "文物保护单位",
    "era": "汉",
    "batch": "第七批"
  },
  {
    "province": "辽宁省",
    "city": "抚顺市",
    "county": "顺城区",
    "longitude": 123.941574,
    "latitude": 41.908452,
    "name": "辽宁省抚顺市顺城区施家沟墓地",
    "classification_number": 554,
    "address": "辽宁省抚顺市顺城区",
    "cultural_relic_type": "古墓葬",
    "announcement_type": "文物保护单位",
    "era": "汉",
    "batch": "第七批"
  },
  {
    "province": "辽宁省",
    "city": "锦州市",
    "county": "北镇市",
    "longitude": 121.777503,
    "latitude": 41.588657,
    "name": "辽宁省锦州市北镇市龙岗墓群",
    "classification_number": 556,
    "address": "辽宁省锦州市北镇市",
    "cultural_relic_type": "古墓葬",
    "announcement_type": "文物保护单位",
    "era": "辽",
    "batch": "第七批"
  },
  {
    "province": "辽宁省",
    "city": "阜新市",
    "county": "阜新蒙古族自治县",
    "longitude": 121.974389,
    "latitude": 42.153104,
    "name": "辽宁省阜新市阜新蒙古族自治县关山辽墓",
    "classification_number": 557,
    "address": "辽宁省阜新市阜新蒙古族自治县",
    "cultural_relic_type": "古墓葬",
    "announcement_type": "文物保护单位",
    "era": "辽",
    "batch": "第七批"
  },
  {
    "province": "辽宁省",
    "city": "辽阳市",
    "county": "太子河区",
    "longitude": 123.18144,
    "latitude": 41.295023,
    "name": "辽宁省辽阳市太子河区东京陵",
    "classification_number": 558,
    "address": "辽宁省辽阳市太子河区",
    "cultural_relic_type": "古墓葬",
    "announcement_type": "文物保护单位",
    "era": "明",
    "batch": "第七批"
  },
  {
    "province": "吉林省",
    "city": "白山市",
    "county": "浑江区",
    "longitude": 126.416093,
    "latitude": 41.945409,
    "name": "吉林省白山市浑江区、江源区、临江市、长白朝鲜族自治县鸭绿江上游积石墓群",
    "classification_number": 560,
    "address": "吉林省白山市浑江区、江源区、临江市、长白朝鲜族自治县",
    "cultural_relic_type": "古墓葬",
    "announcement_type": "文物保护单位",
    "era": "汉",
    "batch": "第七批"
  },
  {
    "province": "吉林省",
    "city": "通化市",
    "county": "通化县",
    "longitude": 126.132652,
    "latitude": 41.781102,
    "name": "吉林省通化市东昌区、通化县江沿墓群",
    "classification_number": 561,
    "address": "吉林省通化市东昌区、通化县",
    "cultural_relic_type": "古墓葬",
    "announcement_type": "文物保护单位",
    "era": "汉",
    "batch": "第七批"
  },
  {
    "province": "吉林省",
    "city": "四平市",
    "county": "梨树县",
    "longitude": 124.404995,
    "latitude": 43.410173,
    "name": "吉林省四平市梨树县友谊村墓群",
    "classification_number": 562,
    "address": "吉林省四平市梨树县",
    "cultural_relic_type": "古墓葬",
    "announcement_type": "文物保护单位",
    "era": "金",
    "batch": "第七批"
  },
  {
    "province": "江苏省",
    "city": "镇江市",
    "county": "丹徒区",
    "longitude": 119.433854,
    "latitude": 32.132118,
    "name": "江苏省镇江市丹徒区烟墩山墓地",
    "classification_number": 565,
    "address": "江苏省镇江市丹徒区",
    "cultural_relic_type": "古墓葬",
    "announcement_type": "文物保护单位",
    "era": "西周",
    "batch": "第七批"
  },
  {
    "province": "江苏省",
    "city": "连云港市",
    "county": "东海县",
    "longitude": 118.681133,
    "latitude": 34.598442,
    "name": "江苏省连云港市东海县尹湾汉墓",
    "classification_number": 566,
    "address": "江苏省连云港市东海县",
    "cultural_relic_type": "古墓葬",
    "announcement_type": "文物保护单位",
    "era": "汉",
    "batch": "第七批"
  },
  {
    "province": "江苏省",
    "city": "宿迁市",
    "county": "泗阳县",
    "longitude": 118.639726,
    "latitude": 33.840411,
    "name": "江苏省宿迁市泗阳县三庄墓群",
    "classification_number": 567,
    "address": "江苏省宿迁市泗阳县",
    "cultural_relic_type": "古墓葬",
    "announcement_type": "文物保护单位",
    "era": "汉",
    "batch": "第七批"
  },
  {
    "province": "江苏省",
    "city": "扬州市",
    "county": "仪征市",
    "longitude": 119.2935,
    "latitude": 32.397948,
    "name": "江苏省扬州市仪征市庙山汉墓",
    "classification_number": 568,
    "address": "江苏省扬州市仪征市",
    "cultural_relic_type": "古墓葬",
    "announcement_type": "文物保护单位",
    "era": "汉",
    "batch": "第七批"
  },
  {
    "province": "江苏省",
    "city": "南京市",
    "county": "江宁区",
    "longitude": 118.913747,
    "latitude": 31.963187,
    "name": "江苏省南京市江宁区上坊孙吴墓",
    "classification_number": 569,
    "address": "江苏省南京市江宁区",
    "cultural_relic_type": "古墓葬",
    "announcement_type": "文物保护单位",
    "era": "三国",
    "batch": "第七批"
  },
  {
    "province": "江苏省",
    "city": "苏州市",
    "county": "昆山市",
    "longitude": 120.980795,
    "latitude": 31.385476,
    "name": "江苏省苏州市昆山市顾炎武墓及故居",
    "classification_number": 571,
    "address": "江苏省苏州市昆山市",
    "cultural_relic_type": "古墓葬",
    "announcement_type": "文物保护单位",
    "era": "清",
    "batch": "第七批"
  },
  {
    "province": "浙江省",
    "city": "金华市",
    "county": "武义县",
    "longitude": 119.888891,
    "latitude": 28.935977,
    "name": "浙江省金华市武义县吕祖谦及家族墓",
    "classification_number": 574,
    "address": "浙江省金华市武义县",
    "cultural_relic_type": "古墓葬",
    "announcement_type": "文物保护单位",
    "era": "宋",
    "batch": "第七批"
  },
  {
    "province": "浙江省",
    "city": "绍兴市",
    "county": "柯桥区",
    "longitude": 120.495532,
    "latitude": 30.083039,
    "name": "浙江省绍兴市绍兴县宋六陵",
    "classification_number": 575,
    "address": "浙江省绍兴市绍兴县",
    "cultural_relic_type": "古墓葬",
    "announcement_type": "文物保护单位",
    "era": "南宋",
    "batch": "第七批"
  },
  {
    "province": "浙江省",
    "city": "湖州市",
    "county": "德清县",
    "longitude": 120.115462,
    "latitude": 30.60473,
    "name": "浙江省湖州市德清县赵孟頫墓",
    "classification_number": 576,
    "address": "浙江省湖州市德清县",
    "cultural_relic_type": "古墓葬",
    "announcement_type": "文物保护单位",
    "era": "元",
    "batch": "第七批"
  },
  {
    "province": "浙江省",
    "city": "嘉兴市",
    "county": "嘉善县",
    "longitude": 120.916282,
    "latitude": 30.841457,
    "name": "浙江省嘉兴市嘉善县吴镇墓",
    "classification_number": 577,
    "address": "浙江省嘉兴市嘉善县",
    "cultural_relic_type": "古墓葬",
    "announcement_type": "文物保护单位",
    "era": "元",
    "batch": "第七批"
  },
  {
    "province": "安徽省",
    "city": "六安市",
    "county": "金安区",
    "longitude": 116.539458,
    "latitude": 31.75014,
    "name": "安徽省六安市金安区六安汉代王陵墓地",
    "classification_number": 580,
    "address": "安徽省六安市金安区",
    "cultural_relic_type": "古墓葬",
    "announcement_type": "文物保护单位",
    "era": "西汉",
    "batch": "第七批"
  },
  {
    "province": "安徽省",
    "city": "六安市",
    "county": "[]",
    "longitude": 116.519729,
    "latitude": 31.735892,
    "name": "安徽省六安市寿县淮南王刘安家族墓地",
    "classification_number": 581,
    "address": "安徽省六安市寿县",
    "cultural_relic_type": "古墓葬",
    "announcement_type": "文物保护单位",
    "era": "汉",
    "batch": "第七批"
  },
  {
    "province": "安徽省",
    "city": "淮北市",
    "county": "濉溪县",
    "longitude": 116.442494,
    "latitude": 33.814736,
    "name": "安徽省淮北市濉溪县古城汉墓",
    "classification_number": 582,
    "address": "安徽省淮北市濉溪县",
    "cultural_relic_type": "古墓葬",
    "announcement_type": "文物保护单位",
    "era": "东汉",
    "batch": "第七批"
  },
  {
    "province": "安徽省",
    "city": "六安市",
    "county": "金寨县",
    "longitude": 115.934253,
    "latitude": 31.727295,
    "name": "安徽省六安市金寨县程端忠墓",
    "classification_number": 583,
    "address": "安徽省六安市金寨县",
    "cultural_relic_type": "古墓葬",
    "announcement_type": "文物保护单位",
    "era": "宋",
    "batch": "第七批"
  },
  {
    "province": "安徽省",
    "city": "蚌埠市",
    "county": "五河县",
    "longitude": 117.943271,
    "latitude": 33.014052,
    "name": "安徽省蚌埠市五河县化明塘严氏墓",
    "classification_number": 584,
    "address": "安徽省蚌埠市五河县",
    "cultural_relic_type": "古墓葬",
    "announcement_type": "文物保护单位",
    "era": "明",
    "batch": "第七批"
  },
  {
    "province": "安徽省",
    "city": "蚌埠市",
    "county": "龙子湖区",
    "longitude": 117.419091,
    "latitude": 32.926952,
    "name": "安徽省蚌埠市龙子湖区汤和墓",
    "classification_number": 585,
    "address": "安徽省蚌埠市龙子湖区",
    "cultural_relic_type": "古墓葬",
    "announcement_type": "文物保护单位",
    "era": "明",
    "batch": "第七批"
  },
  {
    "province": "安徽省",
    "city": "安庆市",
    "county": "桐城市",
    "longitude": 116.896025,
    "latitude": 31.097363,
    "name": "安徽省安庆市桐城市张廷玉墓",
    "classification_number": 586,
    "address": "安徽省安庆市桐城市",
    "cultural_relic_type": "古墓葬",
    "announcement_type": "文物保护单位",
    "era": "清",
    "batch": "第七批"
  },
  {
    "province": "福建省",
    "city": "南平市",
    "county": "浦城县",
    "longitude": 118.544046,
    "latitude": 28.071141,
    "name": "福建省南平市浦城县浦城土墩墓群",
    "classification_number": 587,
    "address": "福建省南平市浦城县",
    "cultural_relic_type": "古墓葬",
    "announcement_type": "文物保护单位",
    "era": "西周",
    "batch": "第七批"
  },
  {
    "province": "福建省",
    "city": "漳州市",
    "county": "芗城区",
    "longitude": 117.653727,
    "latitude": 24.510937,
    "name": "福建省漳州市云霄县、芗城区陈政墓和陈元光墓",
    "classification_number": 588,
    "address": "福建省漳州市云霄县、芗城区",
    "cultural_relic_type": "古墓葬",
    "announcement_type": "文物保护单位",
    "era": "唐",
    "batch": "第七批"
  },
  {
    "province": "江西省",
    "city": "宜春市",
    "county": "靖安县",
    "longitude": 115.295935,
    "latitude": 28.890082,
    "name": "江西省宜春市靖安县李洲坳东周墓葬",
    "classification_number": 589,
    "address": "江西省宜春市靖安县",
    "cultural_relic_type": "古墓葬",
    "announcement_type": "文物保护单位",
    "era": "东周",
    "batch": "第七批"
  },
  {
    "province": "江西省",
    "city": "南昌市",
    "county": "新建区",
    "longitude": 116.007172,
    "latitude": 28.942464,
    "name": "江西省南昌市新建县紫金城城址与铁河古墓群",
    "classification_number": 591,
    "address": "江西省南昌市新建县",
    "cultural_relic_type": "古墓葬",
    "announcement_type": "文物保护单位",
    "era": "汉",
    "batch": "第七批"
  },
  {
    "province": "江西省",
    "city": "吉安市",
    "county": "吉水县",
    "longitude": 115.133877,
    "latitude": 27.2191,
    "name": "江西省吉安市吉水县吉水东吴墓",
    "classification_number": 592,
    "address": "江西省吉安市吉水县",
    "cultural_relic_type": "古墓葬",
    "announcement_type": "文物保护单位",
    "era": "三国",
    "batch": "第七批"
  },
  {
    "province": "江西省",
    "city": "吉安市",
    "county": "青原区",
    "longitude": 115.291277,
    "latitude": 26.770444,
    "name": "江西省吉安市青原区文天祥墓",
    "classification_number": 593,
    "address": "江西省吉安市青原区",
    "cultural_relic_type": "古墓葬",
    "announcement_type": "文物保护单位",
    "era": "元",
    "batch": "第七批"
  },
  {
    "province": "江西省",
    "city": "抚州市",
    "county": "宜黄县",
    "longitude": 116.192103,
    "latitude": 27.48607,
    "name": "江西省抚州市宜黄县谭纶墓",
    "classification_number": 594,
    "address": "江西省抚州市宜黄县",
    "cultural_relic_type": "古墓葬",
    "announcement_type": "文物保护单位",
    "era": "明",
    "batch": "第七批"
  },
  {
    "province": "江西省",
    "city": "南昌市",
    "county": "新建区",
    "longitude": 115.815244,
    "latitude": 28.693192,
    "name": "江西省南昌市新建县朱权墓与乐安王墓",
    "classification_number": 595,
    "address": "江西省南昌市新建县",
    "cultural_relic_type": "古墓葬",
    "announcement_type": "文物保护单位",
    "era": "明",
    "batch": "第七批"
  },
  {
    "province": "江西省",
    "city": "抚州市",
    "county": "南城县",
    "longitude": 116.712369,
    "latitude": 27.502383,
    "name": "江西省抚州市南城县明益藩王墓地",
    "classification_number": 596,
    "address": "江西省抚州市南城县",
    "cultural_relic_type": "古墓葬",
    "announcement_type": "文物保护单位",
    "era": "明",
    "batch": "第七批"
  },
  {
    "province": "山东省",
    "city": "淄博市",
    "county": "临淄区",
    "longitude": 118.380588,
    "latitude": 36.931941,
    "name": "山东省淄博市临淄区临淄墓群",
    "classification_number": 598,
    "address": "山东省淄博市临淄区",
    "cultural_relic_type": "古墓葬",
    "announcement_type": "文物保护单位",
    "era": "周",
    "batch": "第七批"
  },
  {
    "province": "山东省",
    "city": "潍坊市",
    "county": "青州市",
    "longitude": 118.42935,
    "latitude": 36.735303,
    "name": "山东省潍坊市青州市程家沟古墓",
    "classification_number": 601,
    "address": "山东省潍坊市青州市",
    "cultural_relic_type": "古墓葬",
    "announcement_type": "文物保护单位",
    "era": "战国",
    "batch": "第七批"
  },
  {
    "province": "山东省",
    "city": "菏泽市",
    "county": "定陶区",
    "longitude": 115.566207,
    "latitude": 35.077321,
    "name": "山东省菏泽市定陶县定陶王墓地（王陵）",
    "classification_number": 602,
    "address": "山东省菏泽市定陶县",
    "cultural_relic_type": "古墓葬",
    "announcement_type": "文物保护单位",
    "era": "汉",
    "batch": "第七批"
  },
  {
    "province": "山东省",
    "city": "潍坊市",
    "county": "安丘市",
    "longitude": 119.19923,
    "latitude": 36.452356,
    "name": "山东省潍坊市安丘市安丘董家庄汉画像石墓",
    "classification_number": 603,
    "address": "山东省潍坊市安丘市",
    "cultural_relic_type": "古墓葬",
    "announcement_type": "文物保护单位",
    "era": "东汉",
    "batch": "第七批"
  },
  {
    "province": "山东省",
    "city": "威海市",
    "county": "荣成市",
    "longitude": 122.470566,
    "latitude": 36.96183,
    "name": "山东省威海市荣成市留村石墓群",
    "classification_number": 604,
    "address": "山东省威海市荣成市",
    "cultural_relic_type": "古墓葬",
    "announcement_type": "文物保护单位",
    "era": "元",
    "batch": "第七批"
  },
  {
    "province": "山东省",
    "city": "济南市",
    "county": "长清区",
    "longitude": 116.752101,
    "latitude": 36.554251,
    "name": "山东省济南市长清区明德王墓地",
    "classification_number": 605,
    "address": "山东省济南市长清区",
    "cultural_relic_type": "古墓葬",
    "announcement_type": "文物保护单位",
    "era": "明",
    "batch": "第七批"
  },
  {
    "province": "河南省",
    "city": "郑州市",
    "county": "荥阳市",
    "longitude": 113.244519,
    "latitude": 34.855511,
    "name": "河南省郑州市荥阳市苌村汉墓",
    "classification_number": 608,
    "address": "河南省郑州市荥阳市",
    "cultural_relic_type": "古墓葬",
    "announcement_type": "文物保护单位",
    "era": "汉",
    "batch": "第七批"
  },
  {
    "province": "河南省",
    "city": "周口市",
    "county": "淮阳区",
    "longitude": 114.852604,
    "latitude": 33.731543,
    "name": "河南省周口市淮阳县刘崇墓",
    "classification_number": 609,
    "address": "河南省周口市淮阳县",
    "cultural_relic_type": "古墓葬",
    "announcement_type": "文物保护单位",
    "era": "汉",
    "batch": "第七批"
  },
  {
    "province": "河南省",
    "city": "郑州市",
    "county": "新密市",
    "longitude": 113.32947,
    "latitude": 34.533207,
    "name": "河南省郑州市新密市后士郭壁画墓",
    "classification_number": 610,
    "address": "河南省郑州市新密市",
    "cultural_relic_type": "古墓葬",
    "announcement_type": "文物保护单位",
    "era": "东汉",
    "batch": "第七批"
  },
  {
    "province": "河南省",
    "city": "商丘市",
    "county": "梁园区",
    "longitude": 115.613609,
    "latitude": 34.444519,
    "name": "河南省商丘市梁园区徐堌堆墓群",
    "classification_number": 611,
    "address": "河南省商丘市梁园区",
    "cultural_relic_type": "古墓葬",
    "announcement_type": "文物保护单位",
    "era": "东汉",
    "batch": "第七批"
  },
  {
    "province": "河南省",
    "city": "洛阳市",
    "county": "偃师区",
    "longitude": 112.789375,
    "latitude": 34.72715,
    "name": "河南省洛阳市偃师市洛南东汉帝陵",
    "classification_number": 612,
    "address": "河南省洛阳市偃师市",
    "cultural_relic_type": "古墓葬",
    "announcement_type": "文物保护单位",
    "era": "东汉",
    "batch": "第七批"
  },
  {
    "province": "河南省",
    "city": "安阳市",
    "county": "安阳县",
    "longitude": 114.462953,
    "latitude": 36.09211,
    "name": "河南省安阳市安阳县安阳高陵",
    "classification_number": 613,
    "address": "河南省安阳市安阳县",
    "cultural_relic_type": "古墓葬",
    "announcement_type": "文物保护单位",
    "era": "东汉",
    "batch": "第七批"
  },
  {
    "province": "河南省",
    "city": "焦作市",
    "county": "修武县",
    "longitude": 113.442314,
    "latitude": 35.363426,
    "name": "河南省焦作市修武县汉献帝禅陵",
    "classification_number": 614,
    "address": "河南省焦作市修武县",
    "cultural_relic_type": "古墓葬",
    "announcement_type": "文物保护单位",
    "era": "东汉",
    "batch": "第七批"
  },
  {
    "province": "河南省",
    "city": "洛阳市",
    "county": "汝阳县",
    "longitude": 112.577441,
    "latitude": 34.333793,
    "name": "河南省洛阳市汝阳县魏明帝高平陵",
    "classification_number": 615,
    "address": "河南省洛阳市汝阳县",
    "cultural_relic_type": "古墓葬",
    "announcement_type": "文物保护单位",
    "era": "三国",
    "batch": "第七批"
  },
  {
    "province": "河南省",
    "city": "洛阳市",
    "county": "宜阳县",
    "longitude": 112.179187,
    "latitude": 34.51462,
    "name": "河南省洛阳市宜阳县后晋显陵",
    "classification_number": 616,
    "address": "河南省洛阳市宜阳县",
    "cultural_relic_type": "古墓葬",
    "announcement_type": "文物保护单位",
    "era": "五代",
    "batch": "第七批"
  },
  {
    "province": "河南省",
    "city": "许昌市",
    "county": "禹州市",
    "longitude": 113.488715,
    "latitude": 34.142442,
    "name": "河南省许昌市禹州市后汉皇陵",
    "classification_number": 617,
    "address": "河南省许昌市禹州市",
    "cultural_relic_type": "古墓葬",
    "announcement_type": "文物保护单位",
    "era": "五代",
    "batch": "第七批"
  },
  {
    "province": "河南省",
    "city": "洛阳市",
    "county": "伊川县",
    "longitude": 112.425751,
    "latitude": 34.421741,
    "name": "河南省洛阳市伊川县程颐、程颢墓",
    "classification_number": 618,
    "address": "河南省洛阳市伊川县",
    "cultural_relic_type": "古墓葬",
    "announcement_type": "文物保护单位",
    "era": "北宋",
    "batch": "第七批"
  },
  {
    "province": "河南省",
    "city": "焦作市",
    "county": "中站区",
    "longitude": 113.182927,
    "latitude": 35.231023,
    "name": "河南省焦作市中站区许衡墓",
    "classification_number": 619,
    "address": "河南省焦作市中站区",
    "cultural_relic_type": "古墓葬",
    "announcement_type": "文物保护单位",
    "era": "元",
    "batch": "第七批"
  },
  {
    "province": "河南省",
    "city": "许昌市",
    "county": "禹州市",
    "longitude": 113.488715,
    "latitude": 34.142442,
    "name": "河南省许昌市禹州市明周王墓",
    "classification_number": 620,
    "address": "河南省许昌市禹州市",
    "cultural_relic_type": "古墓葬",
    "announcement_type": "文物保护单位",
    "era": "明",
    "batch": "第七批"
  },
  {
    "province": "湖北省",
    "city": "荆门市",
    "county": "京山市",
    "longitude": 113.314183,
    "latitude": 31.326046,
    "name": "湖北省荆门市京山县苏家垄墓群",
    "classification_number": 621,
    "address": "湖北省荆门市京山县",
    "cultural_relic_type": "古墓葬",
    "announcement_type": "文物保护单位",
    "era": "东周",
    "batch": "第七批"
  },
  {
    "province": "湖北省",
    "city": "襄阳市",
    "county": "南漳县",
    "longitude": 112.06087,
    "latitude": 31.716782,
    "name": "湖北省襄樊市南漳县安乐堰墓群",
    "classification_number": 622,
    "address": "湖北省襄樊市南漳县",
    "cultural_relic_type": "古墓葬",
    "announcement_type": "文物保护单位",
    "era": "东周",
    "batch": "第七批"
  },
  {
    "province": "湖北省",
    "city": "荆州市",
    "county": "荆州区",
    "longitude": 112.012128,
    "latitude": 30.486836,
    "name": "湖北省荆州市荆州区马山墓群",
    "classification_number": 623,
    "address": "湖北省荆州市荆州区",
    "cultural_relic_type": "古墓葬",
    "announcement_type": "文物保护单位",
    "era": "东周",
    "batch": "第七批"
  },
  {
    "province": "湖北省",
    "city": "襄阳市",
    "county": "老河口市",
    "longitude": 111.683861,
    "latitude": 32.359068,
    "name": "湖北省襄樊市老河口市霸王坟墓群",
    "classification_number": 624,
    "address": "湖北省襄樊市老河口市",
    "cultural_relic_type": "古墓葬",
    "announcement_type": "文物保护单位",
    "era": "战国",
    "batch": "第七批"
  },
  {
    "province": "湖南省",
    "city": "益阳市",
    "county": "桃江县",
    "longitude": 112.153122,
    "latitude": 28.473883,
    "name": "湖南省益阳市桃江县腰子仑春秋墓群",
    "classification_number": 625,
    "address": "湖南省益阳市桃江县",
    "cultural_relic_type": "古墓葬",
    "announcement_type": "文物保护单位",
    "era": "东周",
    "batch": "第七批"
  },
  {
    "province": "湖南省",
    "city": "常德市",
    "county": "临澧县",
    "longitude": 111.594493,
    "latitude": 29.691318,
    "name": "湖南省常德市临澧县九里楚墓群",
    "classification_number": 627,
    "address": "湖南省常德市临澧县",
    "cultural_relic_type": "古墓葬",
    "announcement_type": "文物保护单位",
    "era": "战国",
    "batch": "第七批"
  },
  {
    "province": "湖南省",
    "city": "湘西土家族苗族自治州",
    "county": "龙山县",
    "longitude": 109.308224,
    "latitude": 28.798475,
    "name": "湖南省湘西土家族苗族自治州龙山县里耶麦茶战国墓群",
    "classification_number": 628,
    "address": "湖南省湘西土家族苗族自治州龙山县",
    "cultural_relic_type": "古墓葬",
    "announcement_type": "文物保护单位",
    "era": "战国",
    "batch": "第七批"
  },
  {
    "province": "湖南省",
    "city": "张家界市",
    "county": "慈利县",
    "longitude": 111.139424,
    "latitude": 29.430429,
    "name": "湖南省张家界市慈利县骑龙岗古墓群",
    "classification_number": 629,
    "address": "湖南省张家界市慈利县",
    "cultural_relic_type": "古墓葬",
    "announcement_type": "文物保护单位",
    "era": "战国",
    "batch": "第七批"
  },
  {
    "province": "湖南省",
    "city": "郴州市",
    "county": "北湖区",
    "longitude": 113.032433,
    "latitude": 25.793613,
    "name": "湖南省郴州市北湖区义帝陵",
    "classification_number": 630,
    "address": "湖南省郴州市北湖区",
    "cultural_relic_type": "古墓葬",
    "announcement_type": "文物保护单位",
    "era": "秦",
    "batch": "第七批"
  },
  {
    "province": "湖南省",
    "city": "长沙市",
    "county": "芙蓉区",
    "longitude": 113.027434,
    "latitude": 28.205482,
    "name": "湖南省长沙市芙蓉区马王堆汉墓",
    "classification_number": 631,
    "address": "湖南省长沙市芙蓉区",
    "cultural_relic_type": "古墓葬",
    "announcement_type": "文物保护单位",
    "era": "西汉",
    "batch": "第七批"
  },
  {
    "province": "湖南省",
    "city": "长沙市",
    "county": "岳麓区",
    "longitude": 112.930116,
    "latitude": 28.234202,
    "name": "湖南省长沙市岳麓区、望城区汉代长沙王陵墓群",
    "classification_number": 632,
    "address": "湖南省长沙市岳麓区、望城区",
    "cultural_relic_type": "古墓葬",
    "announcement_type": "文物保护单位",
    "era": "汉",
    "batch": "第七批"
  },
  {
    "province": "湖南省",
    "city": "长沙市",
    "county": "宁乡市",
    "longitude": 112.021293,
    "latitude": 28.124151,
    "name": "湖南省长沙市宁乡县张南轩墓（含张浚墓）",
    "classification_number": 636,
    "address": "湖南省长沙市宁乡县",
    "cultural_relic_type": "古墓葬",
    "announcement_type": "文物保护单位",
    "era": "宋",
    "batch": "第七批"
  },
  {
    "province": "湖南省",
    "city": "益阳市",
    "county": "安化县",
    "longitude": 111.473798,
    "latitude": 28.382593,
    "name": "湖南省益阳市安化县陶澍墓",
    "classification_number": 637,
    "address": "湖南省益阳市安化县",
    "cultural_relic_type": "古墓葬",
    "announcement_type": "文物保护单位",
    "era": "清",
    "batch": "第七批"
  },
  {
    "province": "湖南省",
    "city": "长沙市",
    "county": "岳麓区",
    "longitude": 112.901235,
    "latitude": 28.078499,
    "name": "湖南省长沙市岳麓区曾国藩墓",
    "classification_number": 638,
    "address": "湖南省长沙市岳麓区",
    "cultural_relic_type": "古墓葬",
    "announcement_type": "文物保护单位",
    "era": "清",
    "batch": "第七批"
  },
  {
    "province": "广东省",
    "city": "广州市",
    "county": "越秀区",
    "longitude": 113.259587,
    "latitude": 23.142427,
    "name": "广东省广州市越秀区清真先贤古墓",
    "classification_number": 640,
    "address": "广东省广州市越秀区",
    "cultural_relic_type": "古墓葬",
    "announcement_type": "文物保护单位",
    "era": "唐",
    "batch": "第七批"
  },
  {
    "province": "广东省",
    "city": "湛江市",
    "county": "雷州市",
    "longitude": 109.904522,
    "latitude": 20.876242,
    "name": "广东省湛江市雷州市唐氏墓群",
    "classification_number": 641,
    "address": "广东省湛江市雷州市",
    "cultural_relic_type": "古墓葬",
    "announcement_type": "文物保护单位",
    "era": "宋",
    "batch": "第七批"
  },
  {
    "province": "广西壮族自治区",
    "city": "河池市",
    "county": "环江毛南族自治县",
    "longitude": 108.258426,
    "latitude": 24.825923,
    "name": "广西壮族自治区河池市环江毛南族自治县凤腾山古墓群",
    "classification_number": 642,
    "address": "广西壮族自治区河池市环江毛南族自治县",
    "cultural_relic_type": "古墓葬",
    "announcement_type": "文物保护单位",
    "era": "清",
    "batch": "第七批"
  },
  {
    "province": "重庆市",
    "city": "重庆市",
    "county": "巫溪县",
    "longitude": 109.641302,
    "latitude": 31.549975,
    "name": "重庆市巫溪县荆竹坝岩棺群",
    "classification_number": 643,
    "address": "重庆市巫溪县",
    "cultural_relic_type": "古墓葬",
    "announcement_type": "文物保护单位",
    "era": "战国",
    "batch": "第七批"
  },
  {
    "province": "四川省",
    "city": "广元市",
    "county": "青川县",
    "longitude": 105.241883,
    "latitude": 32.578398,
    "name": "四川省广元市青川县青川郝家坪战国墓群",
    "classification_number": 645,
    "address": "四川省广元市青川县",
    "cultural_relic_type": "古墓葬",
    "announcement_type": "文物保护单位",
    "era": "战国",
    "batch": "第七批"
  },
  {
    "province": "四川省",
    "city": "绵阳市",
    "county": "涪城区",
    "longitude": 104.546818,
    "latitude": 31.45075,
    "name": "四川省绵阳市涪城区河边九龙山崖墓群",
    "classification_number": 646,
    "address": "四川省绵阳市涪城区",
    "cultural_relic_type": "古墓葬",
    "announcement_type": "文物保护单位",
    "era": "汉",
    "batch": "第七批"
  },
  {
    "province": "四川省",
    "city": "泸州市",
    "county": "合江县",
    "longitude": 105.838661,
    "latitude": 28.805522,
    "name": "四川省泸州市合江县合江崖墓群",
    "classification_number": 647,
    "address": "四川省泸州市合江县",
    "cultural_relic_type": "古墓葬",
    "announcement_type": "文物保护单位",
    "era": "东汉",
    "batch": "第七批"
  },
  {
    "province": "四川省",
    "city": "内江市",
    "county": "东兴区",
    "longitude": 105.233593,
    "latitude": 29.581452,
    "name": "四川省内江市东兴区顺河崖墓群",
    "classification_number": 648,
    "address": "四川省内江市东兴区",
    "cultural_relic_type": "古墓葬",
    "announcement_type": "文物保护单位",
    "era": "东汉",
    "batch": "第七批"
  },
  {
    "province": "四川省",
    "city": "资阳市",
    "county": "安岳县",
    "longitude": 105.119717,
    "latitude": 30.027738,
    "name": "四川省资阳市安岳县铁佛寺崖墓群",
    "classification_number": 649,
    "address": "四川省资阳市安岳县",
    "cultural_relic_type": "古墓葬",
    "announcement_type": "文物保护单位",
    "era": "东汉",
    "batch": "第七批"
  },
  {
    "province": "四川省",
    "city": "宜宾市",
    "county": "长宁县",
    "longitude": 105.022634,
    "latitude": 28.665163,
    "name": "四川省宜宾市长宁县七个洞崖墓群",
    "classification_number": 650,
    "address": "四川省宜宾市长宁县",
    "cultural_relic_type": "古墓葬",
    "announcement_type": "文物保护单位",
    "era": "东汉",
    "batch": "第七批"
  },
  {
    "province": "四川省",
    "city": "泸州市",
    "county": "泸县",
    "longitude": 105.569399,
    "latitude": 29.093215,
    "name": "四川省泸州市泸县罗盘嘴墓群",
    "classification_number": 651,
    "address": "四川省泸州市泸县",
    "cultural_relic_type": "古墓葬",
    "announcement_type": "文物保护单位",
    "era": "宋",
    "batch": "第七批"
  },
  {
    "province": "四川省",
    "city": "宜宾市",
    "county": "高县",
    "longitude": 104.532414,
    "latitude": 28.441034,
    "name": "四川省宜宾市高县南广河流域崖墓群及石刻",
    "classification_number": 652,
    "address": "四川省宜宾市高县",
    "cultural_relic_type": "古墓葬",
    "announcement_type": "文物保护单位",
    "era": "明",
    "batch": "第七批"
  },
  {
    "province": "贵州省",
    "city": "遵义市",
    "county": "务川仡佬族苗族自治县",
    "longitude": 107.847411,
    "latitude": 28.510769,
    "name": "贵州省遵义市务川仡佬族苗族自治县务川大坪墓群",
    "classification_number": 653,
    "address": "贵州省遵义市务川仡佬族苗族自治县",
    "cultural_relic_type": "古墓葬",
    "announcement_type": "文物保护单位",
    "era": "汉",
    "batch": "第七批"
  },
  {
    "province": "贵州省",
    "city": "黔西南布依族苗族自治州",
    "county": "兴义市",
    "longitude": 105.046106,
    "latitude": 25.207493,
    "name": "贵州省黔西南布依族苗族自治州兴义市兴义万屯墓群",
    "classification_number": 654,
    "address": "贵州省黔西南布依族苗族自治州兴义市",
    "cultural_relic_type": "古墓葬",
    "announcement_type": "文物保护单位",
    "era": "东汉",
    "batch": "第七批"
  },
  {
    "province": "贵州省",
    "city": "安顺市",
    "county": "平坝区",
    "longitude": 106.170585,
    "latitude": 26.576596,
    "name": "贵州省安顺市平坝县平坝棺材洞",
    "classification_number": 655,
    "address": "贵州省安顺市平坝县",
    "cultural_relic_type": "古墓葬",
    "announcement_type": "文物保护单位",
    "era": "唐",
    "batch": "第七批"
  },
  {
    "province": "贵州省",
    "city": "黔南布依族苗族自治州",
    "county": "惠水县",
    "longitude": 106.875781,
    "latitude": 26.112552,
    "name": "贵州省黔南布依族苗族自治州惠水县惠水仙人桥洞葬",
    "classification_number": 656,
    "address": "贵州省黔南布依族苗族自治州惠水县",
    "cultural_relic_type": "古墓葬",
    "announcement_type": "文物保护单位",
    "era": "明",
    "batch": "第七批"
  },
  {
    "province": "贵州省",
    "city": "黔南布依族苗族自治州",
    "county": "三都水族自治县",
    "longitude": 107.869489,
    "latitude": 25.983572,
    "name": "贵州省黔南布依族苗族自治州三都水族自治县、荔波县黔南水族墓群",
    "classification_number": 657,
    "address": "贵州省黔南布依族苗族自治州三都水族自治县、荔波县",
    "cultural_relic_type": "古墓葬",
    "announcement_type": "文物保护单位",
    "era": "明",
    "batch": "第七批"
  },
  {
    "province": "贵州省",
    "city": "六盘水市",
    "county": "盘州市",
    "longitude": 104.551077,
    "latitude": 25.607295,
    "name": "贵州省六盘水市盘县小冲墓群",
    "classification_number": 658,
    "address": "贵州省六盘水市盘县",
    "cultural_relic_type": "古墓葬",
    "announcement_type": "文物保护单位",
    "era": "明",
    "batch": "第七批"
  },
  {
    "province": "贵州省",
    "city": "黔西南布依族苗族自治州",
    "county": "安龙县",
    "longitude": 105.465129,
    "latitude": 25.107584,
    "name": "贵州省黔西南布依族苗族自治州安龙县明十八先生墓",
    "classification_number": 659,
    "address": "贵州省黔西南布依族苗族自治州安龙县",
    "cultural_relic_type": "古墓葬",
    "announcement_type": "文物保护单位",
    "era": "清",
    "batch": "第七批"
  },
  {
    "province": "云南省",
    "city": "楚雄彝族自治州",
    "county": "楚雄市",
    "longitude": 101.560429,
    "latitude": 25.011388,
    "name": "云南省楚雄彝族自治州楚雄市万家坝古墓群",
    "classification_number": 660,
    "address": "云南省楚雄彝族自治州楚雄市",
    "cultural_relic_type": "古墓葬",
    "announcement_type": "文物保护单位",
    "era": "周",
    "batch": "第七批"
  },
  {
    "province": "云南省",
    "city": "昭通市",
    "county": "威信县",
    "longitude": 104.782737,
    "latitude": 27.818856,
    "name": "云南省昭通市威信县瓦石悬棺",
    "classification_number": 663,
    "address": "云南省昭通市威信县",
    "cultural_relic_type": "古墓葬",
    "announcement_type": "文物保护单位",
    "era": "唐",
    "batch": "第七批"
  },
  {
    "province": "云南省",
    "city": "大理白族自治州",
    "county": "云龙县",
    "longitude": 99.352827,
    "latitude": 26.274484,
    "name": "云南省大理白族自治州云龙县顺荡火葬墓群",
    "classification_number": 664,
    "address": "云南省大理白族自治州云龙县",
    "cultural_relic_type": "古墓葬",
    "announcement_type": "文物保护单位",
    "era": "明",
    "batch": "第七批"
  },
  {
    "province": "陕西省",
    "city": "西安市",
    "county": "灞桥区",
    "longitude": 109.064675,
    "latitude": 34.273111,
    "name": "陕西省西安市灞桥区窦皇后陵",
    "classification_number": 665,
    "address": "陕西省西安市灞桥区",
    "cultural_relic_type": "古墓葬",
    "announcement_type": "文物保护单位",
    "era": "西汉",
    "batch": "第七批"
  },
  {
    "province": "陕西省",
    "city": "西安市",
    "county": "长安区",
    "longitude": 108.945466,
    "latitude": 34.16861,
    "name": "陕西省西安市长安区凤栖原西汉家族墓地",
    "classification_number": 666,
    "address": "陕西省西安市长安区",
    "cultural_relic_type": "古墓葬",
    "announcement_type": "文物保护单位",
    "era": "西汉",
    "batch": "第七批"
  },
  {
    "province": "陕西省",
    "city": "咸阳市",
    "county": "淳化县",
    "longitude": 108.581461,
    "latitude": 34.88434,
    "name": "陕西省咸阳市淳化县汉云陵",
    "classification_number": 667,
    "address": "陕西省咸阳市淳化县",
    "cultural_relic_type": "古墓葬",
    "announcement_type": "文物保护单位",
    "era": "西汉",
    "batch": "第七批"
  },
  {
    "province": "陕西省",
    "city": "榆林市",
    "county": "榆阳区",
    "longitude": 109.770787,
    "latitude": 38.344166,
    "name": "陕西省榆林市榆阳区走马梁汉墓群",
    "classification_number": 668,
    "address": "陕西省榆林市榆阳区",
    "cultural_relic_type": "古墓葬",
    "announcement_type": "文物保护单位",
    "era": "汉",
    "batch": "第七批"
  },
  {
    "province": "陕西省",
    "city": "西安市",
    "county": "灞桥区",
    "longitude": 109.064675,
    "latitude": 34.273111,
    "name": "陕西省西安市灞桥区薄太后陵",
    "classification_number": 669,
    "address": "陕西省西安市灞桥区",
    "cultural_relic_type": "古墓葬",
    "announcement_type": "文物保护单位",
    "era": "汉",
    "batch": "第七批"
  },
  {
    "province": "陕西省",
    "city": "榆林市",
    "county": "靖边县",
    "longitude": 108.794153,
    "latitude": 37.600351,
    "name": "陕西省榆林市靖边县杨桥畔汉代城址与墓地",
    "classification_number": 670,
    "address": "陕西省榆林市靖边县",
    "cultural_relic_type": "古墓葬",
    "announcement_type": "文物保护单位",
    "era": "汉",
    "batch": "第七批"
  },
  {
    "province": "陕西省",
    "city": "渭南市",
    "county": "富平县",
    "longitude": 109.179903,
    "latitude": 34.751599,
    "name": "陕西省渭南市富平县北周成陵",
    "classification_number": 673,
    "address": "陕西省渭南市富平县",
    "cultural_relic_type": "古墓葬",
    "announcement_type": "文物保护单位",
    "era": "南北朝",
    "batch": "第七批"
  },
  {
    "province": "陕西省",
    "city": "渭南市",
    "county": "富平县",
    "longitude": 109.179903,
    "latitude": 34.751599,
    "name": "陕西省渭南市富平县李重俊墓",
    "classification_number": 674,
    "address": "陕西省渭南市富平县",
    "cultural_relic_type": "古墓葬",
    "announcement_type": "文物保护单位",
    "era": "唐",
    "batch": "第七批"
  },
  {
    "province": "陕西省",
    "city": "渭南市",
    "county": "蒲城县",
    "longitude": 109.525852,
    "latitude": 34.973836,
    "name": "陕西省渭南市蒲城县唐惠陵",
    "classification_number": 675,
    "address": "陕西省渭南市蒲城县",
    "cultural_relic_type": "古墓葬",
    "announcement_type": "文物保护单位",
    "era": "唐",
    "batch": "第七批"
  },
  {
    "province": "陕西省",
    "city": "咸阳市",
    "county": "渭城区",
    "longitude": 108.737062,
    "latitude": 34.36202,
    "name": "陕西省咸阳市渭城区兴宁陵",
    "classification_number": 676,
    "address": "陕西省咸阳市渭城区",
    "cultural_relic_type": "古墓葬",
    "announcement_type": "文物保护单位",
    "era": "唐",
    "batch": "第七批"
  },
  {
    "province": "陕西省",
    "city": "咸阳市",
    "county": "三原县",
    "longitude": 108.940754,
    "latitude": 34.617282,
    "name": "陕西省咸阳市三原县永康陵",
    "classification_number": 677,
    "address": "陕西省咸阳市三原县",
    "cultural_relic_type": "古墓葬",
    "announcement_type": "文物保护单位",
    "era": "唐",
    "batch": "第七批"
  },
  {
    "province": "陕西省",
    "city": "宝鸡市",
    "county": "金台区",
    "longitude": 107.232733,
    "latitude": 34.397071,
    "name": "陕西省宝鸡市金台区李茂贞墓",
    "classification_number": 678,
    "address": "陕西省宝鸡市金台区",
    "cultural_relic_type": "古墓葬",
    "announcement_type": "文物保护单位",
    "era": "五代",
    "batch": "第七批"
  },
  {
    "province": "陕西省",
    "city": "西安市",
    "county": "蓝田县",
    "longitude": 109.302692,
    "latitude": 34.187472,
    "name": "陕西省西安市蓝田县蓝田吕氏家族墓地",
    "classification_number": 679,
    "address": "陕西省西安市蓝田县",
    "cultural_relic_type": "古墓葬",
    "announcement_type": "文物保护单位",
    "era": "北宋",
    "batch": "第七批"
  },
  {
    "province": "陕西省",
    "city": "汉中市",
    "county": "宁强县",
    "longitude": 106.257636,
    "latitude": 32.830032,
    "name": "陕西省汉中市宁强县宁强羌人墓地",
    "classification_number": 680,
    "address": "陕西省汉中市宁强县",
    "cultural_relic_type": "古墓葬",
    "announcement_type": "文物保护单位",
    "era": "宋",
    "batch": "第七批"
  },
  {
    "province": "陕西省",
    "city": "渭南市",
    "county": "大荔县",
    "longitude": 109.941784,
    "latitude": 34.797073,
    "name": "陕西省渭南市大荔县李氏家族墓地",
    "classification_number": 681,
    "address": "陕西省渭南市大荔县",
    "cultural_relic_type": "古墓葬",
    "announcement_type": "文物保护单位",
    "era": "清",
    "batch": "第七批"
  },
  {
    "province": "甘肃省",
    "city": "武威市",
    "county": "凉州区",
    "longitude": 102.641959,
    "latitude": 37.928217,
    "name": "甘肃省武威市凉州区高昌王和西宁王墓",
    "classification_number": 687,
    "address": "甘肃省武威市凉州区",
    "cultural_relic_type": "古墓葬",
    "announcement_type": "文物保护单位",
    "era": "元",
    "batch": "第七批"
  },
  {
    "province": "青海省",
    "city": "玉树藏族自治州",
    "county": "玉树市",
    "longitude": 96.422523,
    "latitude": 33.268227,
    "name": "青海省玉树藏族自治州玉树县杂涅墓群",
    "classification_number": 688,
    "address": "青海省玉树藏族自治州玉树县",
    "cultural_relic_type": "古墓葬",
    "announcement_type": "文物保护单位",
    "era": "唐",
    "batch": "第七批"
  },
  {
    "province": "青海省",
    "city": "玉树藏族自治州",
    "county": "称多县",
    "longitude": 97.109487,
    "latitude": 33.377504,
    "name": "青海省玉树藏族自治州治多县、玉树县、称多县玉树古墓群",
    "classification_number": 689,
    "address": "青海省玉树藏族自治州治多县、玉树县、称多县",
    "cultural_relic_type": "古墓葬",
    "announcement_type": "文物保护单位",
    "era": "唐",
    "batch": "第七批"
  },
  {
    "province": "青海省",
    "city": "海东市",
    "county": "循化撒拉族自治县",
    "longitude": 102.429892,
    "latitude": 35.865917,
    "name": "青海省海东地区循化撒拉族自治县街子拱北",
    "classification_number": 690,
    "address": "青海省海东地区循化撒拉族自治县",
    "cultural_relic_type": "古墓葬",
    "announcement_type": "文物保护单位",
    "era": "清",
    "batch": "第七批"
  },
  {
    "province": "宁夏回族自治区",
    "city": "吴忠市",
    "county": "盐池县",
    "longitude": 107.407184,
    "latitude": 37.783276,
    "name": "宁夏回族自治区吴忠市盐池县窨子梁唐墓",
    "classification_number": 692,
    "address": "宁夏回族自治区吴忠市盐池县",
    "cultural_relic_type": "古墓葬",
    "announcement_type": "文物保护单位",
    "era": "唐",
    "batch": "第七批"
  },
  {
    "province": "新疆维吾尔自治区",
    "city": "阿勒泰地区",
    "county": "布尔津县",
    "longitude": 86.875043,
    "latitude": 47.701892,
    "name": "新疆维吾尔自治区阿勒泰地区布尔津县阔科克古墓群",
    "classification_number": 694,
    "address": "新疆维吾尔自治区阿勒泰地区布尔津县",
    "cultural_relic_type": "古墓葬",
    "announcement_type": "文物保护单位",
    "era": "青铜时代",
    "batch": "第七批"
  },
  {
    "province": "新疆维吾尔自治区",
    "city": "哈密市",
    "county": "伊吾县",
    "longitude": 94.73997,
    "latitude": 43.261706,
    "name": "新疆维吾尔自治区哈密地区伊吾县拜其尔墓地",
    "classification_number": 695,
    "address": "新疆维吾尔自治区哈密地区伊吾县",
    "cultural_relic_type": "古墓葬",
    "announcement_type": "文物保护单位",
    "era": "青铜时代",
    "batch": "第七批"
  },
  {
    "province": "新疆维吾尔自治区",
    "city": "阿克苏地区",
    "county": "库车市",
    "longitude": 82.952899,
    "latitude": 41.719369,
    "name": "新疆维吾尔自治区阿克苏地区库车县默拉纳额什丁麻扎",
    "classification_number": 702,
    "address": "新疆维吾尔自治区阿克苏地区库车县",
    "cultural_relic_type": "古墓葬",
    "announcement_type": "文物保护单位",
    "era": "明",
    "batch": "第七批"
  },
  {
    "province": "湖北省",
    "city": "宜昌市",
    "county": "当阳市",
    "longitude": 111.772832,
    "latitude": 30.841176,
    "name": "湖北省当阳市关陵",
    "classification_number": 270,
    "address": "湖北省当阳市",
    "cultural_relic_type": "古墓葬",
    "announcement_type": "文物保护单位",
    "era": "三国",
    "batch": "第六批"
  },
  {
    "province": "广东省",
    "city": "广州市",
    "county": "番禺区",
    "longitude": 113.37769,
    "latitude": 23.053861,
    "name": "广东省广州市南汉二陵",
    "classification_number": 271,
    "address": "广东省广州市",
    "cultural_relic_type": "古墓葬",
    "announcement_type": "文物保护单位",
    "era": "五代",
    "batch": "第六批"
  },
  {
    "province": "海南省",
    "city": "三亚市",
    "county": "海棠区",
    "longitude": 109.744589,
    "latitude": 18.393482,
    "name": "海南省三亚市藤桥墓群",
    "classification_number": 272,
    "address": "海南省三亚市",
    "cultural_relic_type": "古墓葬",
    "announcement_type": "文物保护单位",
    "era": "唐",
    "batch": "第六批"
  },
  {
    "province": "四川省",
    "city": "凉山彝族自治州",
    "county": "喜德县",
    "longitude": 102.412451,
    "latitude": 28.306429,
    "name": "四川省德昌县、喜德县凉山大石墓群",
    "classification_number": 273,
    "address": "四川省德昌县、喜德县",
    "cultural_relic_type": "古墓葬",
    "announcement_type": "文物保护单位",
    "era": "战国",
    "batch": "第六批"
  },
  {
    "province": "四川省",
    "city": "眉山市",
    "county": "青神县",
    "longitude": 103.828088,
    "latitude": 29.756026,
    "name": "四川省青神县瑞峰崖墓群",
    "classification_number": 274,
    "address": "四川省青神县",
    "cultural_relic_type": "古墓葬",
    "announcement_type": "文物保护单位",
    "era": "汉",
    "batch": "第六批"
  },
  {
    "province": "四川省",
    "city": "德阳市",
    "county": "中江县",
    "longitude": 104.678601,
    "latitude": 31.03327,
    "name": "四川省中江县塔梁子崖墓群",
    "classification_number": 275,
    "address": "四川省中江县",
    "cultural_relic_type": "古墓葬",
    "announcement_type": "文物保护单位",
    "era": "汉",
    "batch": "第六批"
  },
  {
    "province": "四川省",
    "city": "宜宾市",
    "county": "叙州区",
    "longitude": 104.412662,
    "latitude": 28.802045,
    "name": "四川省宜宾县黄伞崖墓群",
    "classification_number": 276,
    "address": "四川省宜宾县",
    "cultural_relic_type": "古墓葬",
    "announcement_type": "文物保护单位",
    "era": "汉",
    "batch": "第六批"
  },
  {
    "province": "四川省",
    "city": "成都市",
    "county": "成华区",
    "longitude": 104.122101,
    "latitude": 30.73889,
    "name": "四川省成都市孟知祥墓",
    "classification_number": 277,
    "address": "四川省成都市",
    "cultural_relic_type": "古墓葬",
    "announcement_type": "文物保护单位",
    "era": "五代",
    "batch": "第六批"
  },
  {
    "province": "四川省",
    "city": "宜宾市",
    "county": "叙州区",
    "longitude": 104.318595,
    "latitude": 28.499176,
    "name": "四川省宜宾县石城山崖墓群",
    "classification_number": 278,
    "address": "四川省宜宾县",
    "cultural_relic_type": "古墓葬",
    "announcement_type": "文物保护单位",
    "era": "宋",
    "batch": "第六批"
  },
  {
    "province": "四川省",
    "city": "泸州市",
    "county": "泸县",
    "longitude": 105.381879,
    "latitude": 29.1516,
    "name": "四川省泸县泸县宋墓",
    "classification_number": 279,
    "address": "四川省泸县",
    "cultural_relic_type": "古墓葬",
    "announcement_type": "文物保护单位",
    "era": "宋",
    "batch": "第六批"
  },
  {
    "province": "贵州省",
    "city": "黔西南布依族苗族自治州",
    "county": "兴仁市",
    "longitude": 105.149384,
    "latitude": 25.340879,
    "name": "贵州省兴仁县交乐墓群",
    "classification_number": 280,
    "address": "贵州省兴仁县",
    "cultural_relic_type": "古墓葬",
    "announcement_type": "文物保护单位",
    "era": "汉",
    "batch": "第六批"
  },
  {
    "province": "云南省",
    "city": "丽江市",
    "county": "永胜县",
    "longitude": 100.750907,
    "latitude": 26.684215,
    "name": "云南省永胜县营盘村墓群",
    "classification_number": 282,
    "address": "云南省永胜县",
    "cultural_relic_type": "古墓葬",
    "announcement_type": "文物保护单位",
    "era": "明",
    "batch": "第六批"
  },
  {
    "province": "西藏自治区",
    "city": "日喀则市",
    "county": "拉孜县",
    "longitude": 87.636934,
    "latitude": 29.08188,
    "name": "西藏自治区拉孜县查木钦墓群",
    "classification_number": 283,
    "address": "西藏自治区拉孜县",
    "cultural_relic_type": "古墓葬",
    "announcement_type": "文物保护单位",
    "era": "唐",
    "batch": "第六批"
  },
  {
    "province": "陕西省",
    "city": "西安市",
    "county": "临潼区",
    "longitude": 109.169008,
    "latitude": 34.330226,
    "name": "陕西省西安市秦东陵",
    "classification_number": 284,
    "address": "陕西省西安市",
    "cultural_relic_type": "古墓葬",
    "announcement_type": "文物保护单位",
    "era": "秦",
    "batch": "第六批"
  },
  {
    "province": "陕西省",
    "city": "汉中市",
    "county": "城固县",
    "longitude": 107.333787,
    "latitude": 33.156937,
    "name": "陕西省城固县张骞墓",
    "classification_number": 285,
    "address": "陕西省城固县",
    "cultural_relic_type": "古墓葬",
    "announcement_type": "文物保护单位",
    "era": "汉",
    "batch": "第六批"
  },
  {
    "province": "陕西省",
    "city": "西安市",
    "county": "长安区",
    "longitude": 109.03747,
    "latitude": 34.107773,
    "name": "陕西省西安市明秦王墓",
    "classification_number": 286,
    "address": "陕西省西安市",
    "cultural_relic_type": "古墓葬",
    "announcement_type": "文物保护单位",
    "era": "明",
    "batch": "第六批"
  },
  {
    "province": "陕西省",
    "city": "汉中市",
    "county": "洋县",
    "longitude": 107.545678,
    "latitude": 33.222808,
    "name": "陕西省洋县蔡伦墓和祠",
    "classification_number": 287,
    "address": "陕西省洋县",
    "cultural_relic_type": "古墓葬",
    "announcement_type": "文物保护单位",
    "era": "清",
    "batch": "第六批"
  },
  {
    "province": "甘肃省",
    "city": "兰州市",
    "county": "榆中县",
    "longitude": 104.112541,
    "latitude": 35.843354,
    "name": "甘肃省榆中县明肃王墓",
    "classification_number": 288,
    "address": "甘肃省榆中县",
    "cultural_relic_type": "古墓葬",
    "announcement_type": "文物保护单位",
    "era": "明",
    "batch": "第六批"
  },
  {
    "province": "新疆维吾尔自治区",
    "city": "哈密市",
    "county": "伊州区",
    "longitude": 92.580346,
    "latitude": 42.741963,
    "name": "新疆维吾尔自治区哈密市五堡墓群",
    "classification_number": 290,
    "address": "新疆维吾尔自治区哈密市",
    "cultural_relic_type": "古墓葬",
    "announcement_type": "文物保护单位",
    "era": "青铜时代",
    "batch": "第六批"
  },
  {
    "province": "新疆维吾尔自治区",
    "city": "喀什地区",
    "county": "[]",
    "longitude": 75.989746,
    "latitude": 39.470492,
    "name": "新疆维吾尔自治区疏附县麻赫穆德·喀什噶里墓",
    "classification_number": 293,
    "address": "新疆维吾尔自治区疏附县",
    "cultural_relic_type": "古墓葬",
    "announcement_type": "文物保护单位",
    "era": "元",
    "batch": "第六批"
  },
  {
    "province": "新疆维吾尔自治区",
    "city": "伊犁哈萨克自治州",
    "county": "伊宁县",
    "longitude": 81.94874,
    "latitude": 43.85378,
    "name": "新疆维吾尔自治区伊宁县速檀·歪思汗麻扎",
    "classification_number": 294,
    "address": "新疆维吾尔自治区伊宁县",
    "cultural_relic_type": "古墓葬",
    "announcement_type": "文物保护单位",
    "era": "明",
    "batch": "第六批"
  },
  {
    "province": "新疆维吾尔自治区",
    "city": "喀什地区",
    "county": "莎车县",
    "longitude": 77.260067,
    "latitude": 38.416879,
    "name": "新疆维吾尔自治区莎车县叶尔羌汗国王陵",
    "classification_number": 295,
    "address": "新疆维吾尔自治区莎车县",
    "cultural_relic_type": "古墓葬",
    "announcement_type": "文物保护单位",
    "era": "明",
    "batch": "第六批"
  },
  {
    "province": "新疆维吾尔自治区",
    "city": "克孜勒苏柯尔克孜自治州",
    "county": "阿图什市",
    "longitude": 76.144017,
    "latitude": 39.690968,
    "name": "新疆维吾尔自治区阿图什市艾比甫·艾洁木麻扎",
    "classification_number": 296,
    "address": "新疆维吾尔自治区阿图什市",
    "cultural_relic_type": "古墓葬",
    "announcement_type": "文物保护单位",
    "era": "清",
    "batch": "第六批"
  },
  {
    "province": "新疆维吾尔自治区",
    "city": "哈密市",
    "county": "伊州区",
    "longitude": 93.489565,
    "latitude": 42.813387,
    "name": "新疆维吾尔自治区哈密市哈密回王墓",
    "classification_number": 297,
    "address": "新疆维吾尔自治区哈密市",
    "cultural_relic_type": "古墓葬",
    "announcement_type": "文物保护单位",
    "era": "清",
    "batch": "第六批"
  },
  {
    "province": "河北省",
    "city": "保定市",
    "county": "易县",
    "longitude": 115.555603,
    "latitude": 39.242344,
    "name": "河北省保定市易县、定兴县丛葬墓群",
    "classification_number": 1956,
    "address": "河北省保定市易县、定兴县",
    "cultural_relic_type": "古墓葬",
    "announcement_type": "合并项目",
    "era": "战国",
    "batch": "第七批",
    "remarks": "归入第一批全国重点文物保护单位燕下都遗址"
  },
  {
    "province": "河北省",
    "city": "张家口市",
    "county": "蔚县",
    "longitude": 114.640033,
    "latitude": 39.844664,
    "name": "河北省张家口市蔚县代王城墓群",
    "classification_number": 1957,
    "address": "河北省张家口市蔚县",
    "cultural_relic_type": "古墓葬",
    "announcement_type": "合并项目",
    "era": "战国",
    "batch": "第七批",
    "remarks": "归入第五批全国重点文物保护单位代王城遗址"
  },
  {
    "province": "辽宁省",
    "city": "辽阳市",
    "county": "文圣区",
    "longitude": 123.231262,
    "latitude": 41.282378,
    "name": "辽宁省辽阳市文圣区东门里壁画墓",
    "classification_number": 1958,
    "address": "辽宁省辽阳市文圣区",
    "cultural_relic_type": "古墓葬",
    "announcement_type": "合并项目",
    "era": "东汉",
    "batch": "第七批",
    "remarks": "归入第一批全国重点文物保护单位辽阳壁画墓群"
  },
  {
    "province": "甘肃省",
    "city": "张掖市",
    "county": "民乐县",
    "longitude": 100.972847,
    "latitude": 38.342075,
    "name": "甘肃省张掖市民乐县八卦营墓群",
    "classification_number": 1964,
    "address": "甘肃省张掖市民乐县",
    "cultural_relic_type": "古墓葬",
    "announcement_type": "合并项目",
    "era": "汉",
    "batch": "第七批",
    "remarks": "归入第六批全国重点文物保护单位八卦营城址"
  },
  {
    "province": "江西省",
    "city": "宜春市",
    "county": "樟树市",
    "longitude": 115.546174,
    "latitude": 28.054632,
    "name": "江西省樟树市国字山墓群",
    "classification_number": 12,
    "address": "江西省樟树市",
    "cultural_relic_type": "古墓葬",
    "announcement_type": "合并项目",
    "era": "东周",
    "batch": "第八批",
    "remarks": "并入第五批全国重点文物保护单位筑卫城遗址"
  },
  {
    "province": "湖南省",
    "city": "永州市",
    "county": "宁远县",
    "longitude": 111.985122,
    "latitude": 25.356484,
    "name": "湖南省宁远县九嶷山舜帝陵",
    "classification_number": 13,
    "address": "湖南省宁远县",
    "cultural_relic_type": "古墓葬",
    "announcement_type": "合并项目",
    "era": "明",
    "batch": "第八批",
    "remarks": "并入第六批全国重点文物保护单位舜帝庙遗址"
  },
  {
    "province": "贵州省",
    "city": "遵义市",
    "county": "播州区",
    "longitude": 106.829081,
    "latitude": 27.535735,
    "name": "贵州省遵义市播州区杨辉墓",
    "classification_number": 14,
    "address": "贵州省遵义市播州区",
    "cultural_relic_type": "古墓葬",
    "announcement_type": "合并项目",
    "era": "明",
    "batch": "第八批",
    "remarks": "并入第二批全国重点文物保护单位杨粲墓，更名为杨氏土司墓群"
  },
  {
    "province": "陕西省",
    "city": "西安市",
    "county": "灞桥区",
    "longitude": 109.116858,
    "latitude": 34.234264,
    "name": "陕西省西安市灞桥区江村大墓",
    "classification_number": 15,
    "address": "陕西省西安市灞桥区",
    "cultural_relic_type": "古墓葬",
    "announcement_type": "合并项目",
    "era": "西汉",
    "batch": "第八批",
    "remarks": "并入第五批全国重点文物保护单位西汉帝陵"
  },
  {
    "province": "北京市",
    "city": "北京市",
    "county": "海淀区",
    "longitude": 116.2977,
    "latitude": 39.959893,
    "name": "北京市海淀区醇亲王墓",
    "classification_number": 168,
    "address": "北京市海淀区",
    "cultural_relic_type": "古墓葬",
    "announcement_type": "文物保护单位",
    "era": "清",
    "batch": "第八批"
  },
  {
    "province": "河北省",
    "city": "邯郸市",
    "county": "邯山区",
    "longitude": 114.462008,
    "latitude": 36.554324,
    "name": "河北省邯郸市邯山区北张庄墓群",
    "classification_number": 169,
    "address": "河北省邯郸市邯山区",
    "cultural_relic_type": "古墓葬",
    "announcement_type": "文物保护单位",
    "era": "汉",
    "batch": "第八批"
  },
  {
    "province": "山西省",
    "city": "临汾市",
    "county": "襄汾县",
    "longitude": 111.506377,
    "latitude": 35.89962,
    "name": "山西省襄汾县陶寺北墓地",
    "classification_number": 170,
    "address": "山西省襄汾县",
    "cultural_relic_type": "古墓葬",
    "announcement_type": "文物保护单位",
    "era": "东周",
    "batch": "第八批"
  },
  {
    "province": "山西省",
    "city": "大同市",
    "county": "平城区",
    "longitude": 113.34573,
    "latitude": 40.064777,
    "name": "山西省大同市平城区沙岭墓群",
    "classification_number": 171,
    "address": "山西省大同市平城区",
    "cultural_relic_type": "古墓葬",
    "announcement_type": "文物保护单位",
    "era": "北魏",
    "batch": "第八批"
  },
  {
    "province": "辽宁省",
    "city": "锦州市",
    "county": "北镇市",
    "longitude": 121.72087,
    "latitude": 41.603772,
    "name": "辽宁省北镇市医巫闾山辽陵",
    "classification_number": 173,
    "address": "辽宁省北镇市",
    "cultural_relic_type": "古墓葬",
    "announcement_type": "文物保护单位",
    "era": "辽",
    "batch": "第八批"
  },
  {
    "province": "辽宁省",
    "city": "朝阳市",
    "county": "建平县",
    "longitude": 120.014412,
    "latitude": 41.75498,
    "name": "辽宁省建平县喀喇沁右翼旗蒙古王陵",
    "classification_number": 174,
    "address": "辽宁省建平县",
    "cultural_relic_type": "古墓葬",
    "announcement_type": "文物保护单位",
    "era": "清",
    "batch": "第八批"
  },
  {
    "province": "江苏省",
    "city": "扬州市",
    "county": "邗江区",
    "longitude": 119.397935,
    "latitude": 32.37741,
    "name": "江苏省扬州市邗江区隋炀帝墓",
    "classification_number": 176,
    "address": "江苏省扬州市邗江区",
    "cultural_relic_type": "古墓葬",
    "announcement_type": "文物保护单位",
    "era": "唐",
    "batch": "第八批"
  },
  {
    "province": "安徽省",
    "city": "马鞍山市",
    "county": "当涂县",
    "longitude": 118.644636,
    "latitude": 31.388194,
    "name": "安徽省当涂县洞阳东吴墓",
    "classification_number": 177,
    "address": "安徽省当涂县",
    "cultural_relic_type": "古墓葬",
    "announcement_type": "文物保护单位",
    "era": "三国",
    "batch": "第八批"
  },
  {
    "province": "安徽省",
    "city": "合肥市",
    "county": "肥东县",
    "longitude": 117.4779,
    "latitude": 31.878601,
    "name": "安徽省肥东县吴复墓",
    "classification_number": 178,
    "address": "安徽省肥东县",
    "cultural_relic_type": "古墓葬",
    "announcement_type": "文物保护单位",
    "era": "明",
    "batch": "第八批"
  },
  {
    "province": "福建省",
    "city": "泉州市",
    "county": "惠安县",
    "longitude": 118.755119,
    "latitude": 24.880001,
    "name": "福建省惠安县百崎郭氏墓群",
    "classification_number": 179,
    "address": "福建省惠安县",
    "cultural_relic_type": "古墓葬",
    "announcement_type": "文物保护单位",
    "era": "明",
    "batch": "第八批"
  },
  {
    "province": "山东省",
    "city": "临沂市",
    "county": "沂水县",
    "longitude": 118.35981,
    "latitude": 35.948679,
    "name": "山东省沂水县纪王崮墓群",
    "classification_number": 180,
    "address": "山东省沂水县",
    "cultural_relic_type": "古墓葬",
    "announcement_type": "文物保护单位",
    "era": "东周",
    "batch": "第八批"
  },
  {
    "province": "山东省",
    "city": "菏泽市",
    "county": "巨野县",
    "longitude": 116.062585,
    "latitude": 35.388543,
    "name": "山东省巨野县金山汉墓群",
    "classification_number": 181,
    "address": "山东省巨野县",
    "cultural_relic_type": "古墓葬",
    "announcement_type": "文物保护单位",
    "era": "西汉",
    "batch": "第八批"
  },
  {
    "province": "河南省",
    "city": "洛阳市",
    "county": "伊川县",
    "longitude": 112.230072,
    "latitude": 34.36544,
    "name": "河南省伊川县徐阳墓地",
    "classification_number": 183,
    "address": "河南省伊川县",
    "cultural_relic_type": "古墓葬",
    "announcement_type": "文物保护单位",
    "era": "东周",
    "batch": "第八批"
  },
  {
    "province": "河南省",
    "city": "洛阳市",
    "county": "洛龙区",
    "longitude": 112.642159,
    "latitude": 34.552072,
    "name": "河南省洛阳市洛龙区西朱村曹魏墓",
    "classification_number": 184,
    "address": "河南省洛阳市洛龙区",
    "cultural_relic_type": "古墓葬",
    "announcement_type": "文物保护单位",
    "era": "三国",
    "batch": "第八批"
  },
  {
    "province": "湖北省",
    "city": "随州市",
    "county": "曾都区",
    "longitude": 113.371052,
    "latitude": 31.716423,
    "name": "湖北省随州市曾都区义地岗墓群",
    "classification_number": 185,
    "address": "湖北省随州市曾都区",
    "cultural_relic_type": "古墓葬",
    "announcement_type": "文物保护单位",
    "era": "东周",
    "batch": "第八批"
  },
  {
    "province": "湖北省",
    "city": "黄冈市",
    "county": "英山县",
    "longitude": 115.680953,
    "latitude": 30.734989,
    "name": "湖北省英山县毕昇墓",
    "classification_number": 186,
    "address": "湖北省英山县",
    "cultural_relic_type": "古墓葬",
    "announcement_type": "文物保护单位",
    "era": "北宋",
    "batch": "第八批"
  },
  {
    "province": "湖南省",
    "city": "岳阳市",
    "county": "汨罗市",
    "longitude": 113.066873,
    "latitude": 28.79601,
    "name": "湖南省汨罗市汨罗山墓群",
    "classification_number": 187,
    "address": "湖南省汨罗市",
    "cultural_relic_type": "古墓葬",
    "announcement_type": "文物保护单位",
    "era": "战国",
    "batch": "第八批"
  },
  {
    "province": "湖南省",
    "city": "衡阳市",
    "county": "珠晖区",
    "longitude": 112.675888,
    "latitude": 26.903189,
    "name": "湖南省衡阳市珠晖区蒋家山墓葬",
    "classification_number": 188,
    "address": "湖南省衡阳市珠晖区",
    "cultural_relic_type": "古墓葬",
    "announcement_type": "文物保护单位",
    "era": "汉",
    "batch": "第八批"
  },
  {
    "province": "陕西省",
    "city": "宝鸡市",
    "county": "渭滨区",
    "longitude": 107.191615,
    "latitude": 34.347428,
    "name": "陕西省宝鸡市渭滨区石鼓山墓地",
    "classification_number": 191,
    "address": "陕西省宝鸡市渭滨区",
    "cultural_relic_type": "古墓葬",
    "announcement_type": "文物保护单位",
    "era": "西周",
    "batch": "第八批"
  },
  {
    "province": "陕西省",
    "city": "咸阳市",
    "county": "渭城区",
    "longitude": 108.737062,
    "latitude": 34.36202,
    "name": "陕西省咸阳市渭城区咸阳秦王陵",
    "classification_number": 193,
    "address": "陕西省咸阳市渭城区",
    "cultural_relic_type": "古墓葬",
    "announcement_type": "文物保护单位",
    "era": "战国",
    "batch": "第八批"
  },
  {
    "province": "陕西省",
    "city": "渭南市",
    "county": "潼关县",
    "longitude": 110.246105,
    "latitude": 34.544294,
    "name": "陕西省潼关县杨震家族墓地",
    "classification_number": 195,
    "address": "陕西省潼关县",
    "cultural_relic_type": "古墓葬",
    "announcement_type": "文物保护单位",
    "era": "东汉",
    "batch": "第八批"
  },
  {
    "province": "甘肃省",
    "city": "陇南市",
    "county": "成县",
    "longitude": 105.669286,
    "latitude": 33.755723,
    "name": "甘肃省成县吴挺墓",
    "classification_number": 196,
    "address": "甘肃省成县",
    "cultural_relic_type": "古墓葬",
    "announcement_type": "文物保护单位",
    "era": "南宋",
    "batch": "第八批"
  },
  {
    "province": "新疆维吾尔自治区",
    "city": "喀什地区",
    "county": "塔什库尔干塔吉克自治县",
    "longitude": 75.229889,
    "latitude": 37.772094,
    "name": "新疆维吾尔自治区塔什库尔干塔吉克自治县吉尔赞喀勒墓地",
    "classification_number": 197,
    "address": "新疆维吾尔自治区塔什库尔干塔吉克自治县",
    "cultural_relic_type": "古墓葬",
    "announcement_type": "文物保护单位",
    "era": "东周",
    "batch": "第八批"
  }
]